record type,bus stop id,bus stop short name,bus stop long name,longitude,latitude
90,3,SN3,NB D after Alexander,-115.147338,36.193992
90,6,SN6,SB D after Frederick,-115.147489,36.192131
90,9,SN9,SB D after Kasper,-115.147512,36.194894
90,10,SN10,NB D after Madison,-115.146999,36.184298
90,11,SN11,SB D after Monroe,-115.147156,36.184607
90,12,SN12,NB D before Owens,-115.147154,36.188311
90,13,SN13,SB D after Owens,-115.147288,36.188244
90,14,SN14,NB D before Paul,-115.147273,36.190482
90,17,SN17,NB H after Bonanza,-115.151745,36.17789
90,18,SN18,NB H after Byrnes,-115.151742,36.192243
90,21,SN21,SB H after Lake Mead,-115.152018,36.195388
90,23,SN23,SB H after McWilliams,-115.152018,36.17889
90,24,SN24,SB H before Monroe,-115.151982,36.185191
90,25,SN25,NB H after Monroe,-115.151788,36.185468
90,28,SN28,NB H before Harrison,-115.151839,36.187723
90,29,SN29,SB H after Owens,-115.152057,36.187959
90,30,SN30,NB H after Washington,-115.151748,36.181027
90,31,SN31,SB H after Washington,-115.151941,36.180382
90,34,SN34,NB 4th at Fremont Street Experience,-115.141989,36.169247
90,35,SN35,NB 4th after Bonneville,-115.145195,36.164434
90,36,SN36,NB 4th after Lewis,-115.143559,36.166877
90,39,SN39,EB Adams after Buchanan,-114.843729,35.96831
90,40,SN40,EB Adams after Avenue B,-114.836638,35.968609
90,41,SN41,EB Adams after Georgia,-114.8308,35.968919
90,42,SN42,EB Adams after San Felipe,-114.82686,35.96913
90,50,SN50,WB Alta after Altamira,-115.25647,36.166601
90,52,SN52,WB Alta after Antelope,-115.25174,36.166598
90,55,SN55,EB Alta after Brush,-115.209335,36.165968
90,56,SN56,WB Alta before Campbell,-115.182689,36.166329
90,57,SN57,EB Alta before Campbell,-115.183624,36.166218
90,61,SN61,WB Alta after Cimarron,-115.270496,36.166509
90,63,SN63,WB Alta after Decatur,-115.206759,36.166616
90,67,SN67,WB Alta after Falcon,-115.216066,36.166091
90,68,SN68,EB Bonneville after Grand Central,-115.154545,36.16665
90,69,SN69,WB Bonneville after Grand Central,-115.156544,36.16665
90,70,SN70,WB Alta after Hussey,-115.229099,36.166477
90,71,SN71,WB Alta before Brush,-115.20913,36.166106
90,72,SN72,EB Alta after Jones,-115.223137,36.166295
90,73,SN73,WB Alta after Jones,-115.224587,36.16647
90,76,SN76,EB Alta after Lindy,-115.236674,36.166338
90,78,SN78,EB Bonneville after Martin L King,-115.160139,36.166154
90,81,SN81,EB Alta after Rainbow,-115.243415,36.166363
90,82,SN82,WB Alta after Rainbow,-115.245119,36.166568
90,83,SN83,EB Alta after Rancho,-115.171846,36.166077
90,84,SN84,WB Alta after Rancho,-115.174276,36.166216
90,85,SN85,WB Alta after Roland Wiley,-115.27388,36.16651
90,86,SN86,WB Alta after Buffalo,-115.262007,36.16664
90,92,SN92,EB Alta after Slayton,-115.226689,36.166304
90,95,SN95,EB Alta after Torrey Pines,-115.232454,36.166328
90,96,SN96,WB Alta after Torrey Pines,-115.233697,36.166518
90,97,SN97,EB Alta after Upland,-115.216989,36.165939
90,98,SN98,EB Alta after Valley View,-115.191447,36.166155
90,100,SN100,WB Alta before Vassar,-115.239958,36.166538
90,101,SN101,EB Alta after Lorenzi,-115.240177,36.166354
90,102,SN102,WB Alta after Villa Monterrey,-115.265077,36.166609
90,109,SN109,WB Ann after Jones,-115.226239,36.261276
90,110,SN110,WB Ann before Copper Harbor,-115.230874,36.261861
90,114,SN114,WB Arizona at California,-114.83457,35.978319
90,158,SN158,WB Bonanza after D,-115.147628,36.177362
90,159,SN159,EB Bonanza after City Parkway,-115.148499,36.177172
90,160,SN160,EB Bonanza before H,-115.152244,36.177083
90,161,SN161,WB Bonanza after H,-115.153016,36.177244
90,162,SN162,EB Bonanza after Martin L King,-115.156164,36.177052
90,163,SN163,WB Bonanza after H,-115.155555,36.177222
90,165,SN165,EB Bonanza after 23rd,-115.118217,36.173859
90,166,SN166,EB Bonanza after 9th,-115.13312,36.17396
90,167,SN167,WB Bonanza before Las Vegas,-115.135858,36.174455
90,168,SN168,WB Bonanza after Lillian,-115.066877,36.17404
90,171,SN171,EB Bonanza after Bruce,-115.124363,36.173871
90,172,SN172,WB Bonanza after Bruce,-115.125617,36.174137
90,174,SN174,EB Bonanza after Clarkway,-115.166571,36.177078
90,177,SN177,WB Bonanza before Christy,-115.052221,36.174233
90,178,SN178,WB Bonanza before Dike,-115.17324,36.177259
90,179,SN179,EB Bonanza after Eastern,-115.115238,36.173797
90,180,SN180,WB Bonanza after Eastern,-115.116707,36.17413
90,184,SN184,EB Bonanza after Honolulu,-115.092321,36.173376
90,185,SN185,WB Bonanza before Pecos,-115.092964,36.173594
90,188,SN188,EB Bonanza after Las Vegas,-115.135321,36.17405
90,190,SN190,EB Bonanza after Lamb,-115.079524,36.17339
90,191,SN191,WB Bonanza after Lamb,-115.081208,36.17361
90,192,SN192,EB Bonanza before Lillian,-115.064826,36.173856
90,194,SN194,WB Bonanza after Linn,-115.049299,36.17437
90,195,SN195,EB Bonanza after Martin L King,-115.159496,36.177024
90,196,SN196,WB Bonanza after Sunny,-115.162145,36.177204
90,199,SN199,WB Bonanza after Main,-115.143351,36.177396
90,200,SN200,EB Bonanza after Marion,-115.070672,36.173675
90,201,SN201,EB Bonanza after Maryland,-115.130079,36.173946
90,202,SN202,WB Bonanza after Maryland,-115.131052,36.174125
90,203,SN203,WB Bonanza after McKnight,-115.112698,36.173923
90,205,SN205,WB Bonanza after Sloan,-115.044329,36.174498
90,206,SN206,EB Bonanza after Mojave,-115.105145,36.173534
90,207,SN207,WB Bonanza after Mojave,-115.106448,36.17382
90,210,SN210,WB Bonanza after Nellis,-115.064065,36.174106
90,211,SN211,EB Bonanza after Page,-115.075256,36.173532
90,212,SN212,EB Bonanza after Pecos,-115.097127,36.173379
90,213,SN213,WB Bonanza after Pecos,-115.09918,36.173669
90,214,SN214,WB Bonanza before Marion,-115.070492,36.173901
90,215,SN215,EB Bonanza after Rancho,-115.173879,36.177082
90,217,SN217,WB Bonanza after Reef,-115.095858,36.17363
90,219,SN219,EB Bonanza after Sandhill,-115.088638,36.173357
90,220,SN220,EB Bonanza after 28th,-115.111057,36.173652
90,225,SN225,EB Bonanza after Tonopah,-115.169368,36.177082
90,226,SN226,WB Bonanza after Tonopah,-115.170583,36.177229
90,227,SN227,EB Bonanza after Triest,-115.085578,36.173358
90,228,SN228,WB Bonanza after Triest,-115.087209,36.17359
90,229,SN229,EB Bonanza after Casino Center,-115.139848,36.175984
90,230,SN230,WB Bonanza after Wardelle,-115.109998,36.173862
90,236,SN236,SB Boulder after Sahara,-115.096002,36.140569
90,242,SN242,Railroad Pass On Property Stop,-114.911989,35.972099
90,245,SN245,NB Boulder after Basic,-114.975002,36.033616
90,246,SN246,SB Boulder after Basic,-114.974487,36.032539
90,247,SN247,NB Boulder at Boulder Station,-115.086309,36.132586
90,248,SN248,NB Boulder after Pueblo,-114.961749,36.021832
90,249,SN249,SB Boulder after College,-114.960953,36.020521
90,250,SN250,NB Boulder before Corn,-115.005223,36.060508
90,251,SN251,SB Boulder after Corn,-115.004641,36.059372
90,252,SN252,NB Boulder before Dalhart,-115.094936,36.140224
90,253,SN253,NB Boulder before Desert Horizons,-115.037225,36.088976
90,254,SN254,SB Boulder after Kentucky,-115.037659,36.088729
90,259,SN259,SB Boulder before Flamingo,-115.068069,36.11576
90,260,SN260,NB Boulder after Flamingo,-115.067173,36.115577
90,262,SN262,SB Boulder before Coogan,-115.007293,36.061738
90,267,SN267,SB Boulder after Greenway,-114.964467,36.023658
90,268,SN268,NB Boulder after Hamilton,-115.040987,36.092346
90,270,SN270,SB Boulder after Harmon,-115.058858,36.107583
90,272,SN272,NB Boulder after Indios,-115.074242,36.121852
90,273,SN273,SB Boulder after Indios,-115.073699,36.120758
90,275,SN275,NB Boulder after King,-114.999437,36.055367
90,276,SN276,NB Boulder after Lake Mead,-114.982682,36.040496
90,278,SN278,NB Boulder after Lamb,-115.084147,36.130638
90,281,SN281,SB Boulder after Magic,-114.942389,36.003959
90,282,SN282,NB Boulder after Magic,-114.94331,36.005415
90,283,SN283,NB Boulder after Major,-114.971862,36.03082
90,286,SN286,NB Boulder after Merlayne,-115.009186,36.064031
90,287,SN287,NB Boulder before Missouri,-115.045651,36.096504
90,292,SN292,SB Boulder after Nellis,-115.064129,36.112263
90,293,SN293,NB Boulder before Nellis,-115.063453,36.112271
90,295,SN295,NB Boulder after Warm Springs,-114.995476,36.051838
90,296,SN296,SB Boulder before Warm Springs,-114.995796,36.051466
90,297,SN297,NB Boulder after Palo Verde,-114.965796,36.025463
90,298,SN298,NB Boulder after Roberts,-114.940399,36.002858
90,300,SN300,NB Boulder after Rolly,-115.001875,36.057526
90,301,SN301,SB Boulder after Rolly,-115.00158,36.056645
90,303,SN303,SB Boulder after Russell,-115.032256,36.08393
90,307,SN307,SB Boulder after Snap,-114.999785,36.055052
90,308,SN308,NB Boulder before Harmon,-115.057589,36.107064
90,312,SN312,SB Boulder after Texas,-114.977556,36.035267
90,313,SN313,NB Boulder Hwy after Texas,-114.979766,36.037862
90,314,SN314,NB Boulder after Tropicana,-115.051156,36.101344
90,318,SN318,NB Boulder after Water,-114.989121,36.046184
90,319,SN319,SB Boulder after Water,-114.988274,36.044809
90,332,SN332,SB Bruce after Gragson,-115.125227,36.182897
90,335,SN335,SB Bruce after Searles,-115.12522,36.18453
90,337,SN337,NB Bruce at Todd,-115.124977,36.18287
90,338,SN338,SB Bruce after Washington,-115.12524,36.180768
90,339,SN339,SB Buchanan after Boulder City Pkwy,-114.845788,35.97356
90,340,SN340,SB Buchanan before Pinata,-114.845398,35.9702
90,342,SN342,SB Buffalo before Carmen,-115.260158,36.185429
90,348,SN348,EB Burkholder before Cabrillo,-114.96559,36.037425
90,363,SN363,NB Camino Eldorado after Ann,-115.15698,36.261786
90,370,SN370,EB Carey after Bruce,-115.124541,36.202995
90,371,SN371,WB Carey after Bruce,-115.125761,36.203209
90,372,SN372,EB Carey after Civic Center,-115.119523,36.203004
90,373,SN373,WB Carey after Civic Center,-115.121828,36.203219
90,375,SN375,WB Carey after Clayton,-115.170393,36.203056
90,376,SN376,EB Carey after Commerce,-115.14179,36.202959
90,377,SN377,WB Carey after Commerce,-115.14356,36.203198
90,381,SN381,EB Carey after Donna,-115.128934,36.202984
90,382,SN382,WB Carey after Donna,-115.130404,36.203203
90,384,SN384,WB Carey after Englestad,-115.147563,36.203197
90,397,SN397,WB Carey after Losee,-115.139359,36.203238
90,398,SN398,EB Carey before Losee,-115.138842,36.202985
90,399,SN399,EB Carey after Martin L King,-115.160057,36.202919
90,400,SN400,WB Carey after Martin L King,-115.161702,36.203117
90,402,SN402,WB Carey before North,-115.15706,36.203198
90,403,SN403,EB Carey after North,-115.156762,36.202962
90,408,SN408,WB Carey after Revere,-115.153388,36.203258
90,411,SN411,EB Carey after Sierra Sunrise,-115.01926,36.202429
90,418,SN418,WB Carey after West,-115.165842,36.203085
90,440,SN440,SB Center after Dogwood,-114.967325,36.046223
90,441,SN441,SB Center after Ivy,-114.967334,36.042767
90,442,SN442,SB Center after Maple,-114.96739,36.039908
90,443,SN443,WB Warm Springs before Center,-114.966306,36.050308
90,445,SN445,EB Charleston after 10th,-115.140084,36.158745
90,446,SN446,WB Charleston after Gass,-115.141786,36.158938
90,449,SN449,EB Charleston after Hillside,-115.129811,36.158754
90,451,SN451,EB Charleston after 28th,-115.110957,36.158699
90,452,SN452,WB Charleston after 28th,-115.112364,36.158946
90,453,SN453,EB Charleston after Antelope,-115.249912,36.158978
90,455,SN455,EB Charleston after Arden,-115.073841,36.158867
90,456,SN456,WB Charleston after Arville,-115.200271,36.159159
90,458,SN458,EB Charleston after Broadalbin,-115.082766,36.158815
90,459,SN459,EB Charleston after Bruce,-115.124453,36.158752
90,460,SN460,WB Charleston after Bruce,-115.125824,36.158978
90,461,SN461,WB Charleston after Brush,-115.210909,36.159224
90,462,SN462,EB Charleston after Brush,-115.209626,36.158962
90,463,SN463,EB Charleston after Buffalo,-115.261609,36.158991
90,464,SN464,EB Charleston after Cahlan,-115.178365,36.158821
90,465,SN465,EB Charleston after Campbell,-115.182829,36.158846
90,466,SN466,WB Charleston after Campbell,-115.18398,36.159067
90,467,SN467,EB Charleston after Cashman,-115.185964,36.158864
90,473,SN473,EB Charleston after Decatur,-115.20473,36.158943
90,474,SN474,WB Charleston after Decatur,-115.206551,36.159218
90,477,SN477,EB Charleston after Durango,-115.279466,36.158958
90,478,SN478,WB Charleston after Durango,-115.280807,36.159175
90,479,SN479,WB Charleston after Eastern,-115.119857,36.158962
90,480,SN480,EB Charleston after Faircenter,-115.200781,36.158945
90,482,SN482,EB Charleston before Frank,-115.067983,36.15886
90,484,SN484,EB Charleston after Hinson,-115.194804,36.158911
90,486,SN486,WB Charleston after Honolulu,-115.094151,36.158963
90,487,SN487,EB Charleston after Jones,-115.222962,36.159051
90,488,SN488,WB Charleston after Jones,-115.224926,36.159309
90,489,SN489,EB Charleston after Las Vegas,-115.147005,36.158734
90,490,SN490,WB Charleston after Las Vegas,-115.148204,36.158957
90,491,SN491,EB Charleston after Lamb,-115.078797,36.158829
90,492,SN492,WB Charleston after Lamb,-115.081736,36.159073
90,495,SN495,WB Charleston before Marion,-115.073652,36.159131
90,496,SN496,WB Charleston after Marion,-115.07665,36.159101
90,497,SN497,EB Charleston after Maryland,-115.136234,36.158763
90,498,SN498,WB Charleston after Maryland,-115.13779,36.159004
90,499,SN499,EB Charleston after Mohawk,-115.214512,36.159037
90,500,SN500,WB Charleston after Mohawk,-115.215781,36.159288
90,501,SN501,EB Charleston before Mojave,-115.106353,36.158725
90,502,SN502,WB Charleston after Mojave,-115.106102,36.158947
90,503,SN503,EB Charleston after Nellis,-115.061301,36.15895
90,504,SN504,WB Charleston after Nellis,-115.063968,36.159153
90,507,SN507,WB Charleston after Odette,-115.287579,36.15921
90,508,SN508,EB Charleston after Palm,-115.100674,36.158722
90,509,SN509,EB Charleston before Plantation,-115.255819,36.158999
90,510,SN510,WB Charleston after Palmhurst,-115.255654,36.159212
90,511,SN511,WB Charleston before Pecos,-115.099004,36.158977
90,512,SN512,WB Charleston after Pecos,-115.102265,36.158976
90,515,SN515,EB Charleston after Rainbow,-115.242706,36.15901
90,516,SN516,WB Charleston after Rainbow,-115.244603,36.159235
90,517,SN517,EB Charleston after Rancho,-115.172033,36.158762
90,518,SN518,WB Charleston after Rancho,-115.173398,36.159007
90,519,SN519,WB Charleston after Redwood,-115.239945,36.159242
90,522,SN522,EB Charleston after Sacramento,-115.087007,36.158796
90,523,SN523,WB Charleston after Sacramento,-115.088303,36.159001
90,524,SN524,EB Charleston before Sandhill,-115.094607,36.158711
90,525,SN525,EB Charleston before Torrey Pines,-115.238767,36.159018
90,527,SN527,WB Charleston after Shetland,-115.178297,36.159032
90,529,SN529,WB Charleston before Linn,-115.048505,36.159523
90,530,SN530,EB Charleston after Tomsik,-115.272341,36.158971
90,531,SN531,WB Charleston after Tonopah,-115.170629,36.159018
90,532,SN532,WB Charleston before Torrey Pines,-115.232072,36.159302
90,533,SN533,EB Charleston after Torrey Pines,-115.23402,36.159055
90,534,SN534,WB Charleston after Torrey Pines,-115.235842,36.15926
90,535,SN535,WB Charleston after Upland,-115.220527,36.159286
90,536,SN536,EB Charleston after Valley View,-115.191553,36.158898
90,538,SN538,EB Charleston after Warbonnet,-115.266414,36.158981
90,540,SN540,EB Charleston after Westwind,-115.218688,36.159062
90,542,SN542,WB Charleston after Shadow,-115.166251,36.159018
90,543,SN543,WB Charleston before Lamont,-115.069275,36.159137
90,544,SN544,EB Cheyenne before Pecos,-115.10058,36.21754
90,546,SN546,EB Cheyenne at Cheyenne Air,-115.201239,36.217237
90,547,SN547,EB Cheyenne after Allen,-115.187698,36.217403
90,548,SN548,WB Cheyenne after Allen,-115.189435,36.217603
90,549,SN549,WB Cheyenne after Berg,-115.113427,36.217767
90,550,SN550,EB Cheyenne after Berg,-115.112408,36.217536
90,551,SN551,EB Cheyenne after Bucyrus Erie,-115.130009,36.217602
90,552,SN552,WB Cheyenne after Buffalo,-115.26118,36.218407
90,553,SN553,EB Cheyenne after California,-115.194525,36.21732
90,554,SN554,WB Cheyenne after Cimarron,-115.265577,36.218507
90,555,SN555,EB Cheyenne before 5th,-115.136413,36.217687
90,556,SN556,EB Cheyenne after Civic Center,-115.11931,36.217522
90,557,SN557,EB Cheyenne after Clayton,-115.169576,36.217552
90,558,SN558,WB Cheyenne after Clayton,-115.170882,36.217764
90,559,SN559,EB Cheyenne after Commerce,-115.142567,36.217847
90,560,SN560,WB Cheyenne after Commerce,-115.143649,36.218117
90,561,SN561,EB Cheyenne after Decatur,-115.20682,36.21718
90,562,SN562,WB Cheyenne after Decatur,-115.20841,36.217377
90,563,SN563,WB Cheyenne before Marion,-115.070699,36.217886
90,564,SN564,EB Cheyenne after Abels,-115.075196,36.217614
90,565,SN565,WB Cheyenne after Englestad,-115.148258,36.21801
90,566,SN566,EB Cheyenne at Englestad,-115.146801,36.217774
90,567,SN567,EB Cheyenne after Jones,-115.224886,36.216684
90,568,SN568,WB Cheyenne after Jones,-115.227255,36.217073
90,569,SN569,EB Cheyenne after Lamb,-115.079441,36.217599
90,570,SN570,WB Cheyenne after Lamb,-115.080747,36.217859
90,571,SN571,EB Cheyenne after Lamont,-115.066074,36.21796
90,572,SN572,WB Cheyenne after Lamont,-115.067303,36.218097
90,573,SN573,EB Cheyenne after Las Vegas,-115.092598,36.21756
90,574,SN574,WB Cheyenne after Losee,-115.129025,36.217816
90,575,SN575,EB Cheyenne after Martin L King,-115.16062,36.217583
90,576,SN576,WB Cheyenne after Martin L King,-115.162727,36.217839
90,577,SN577,WB Cheyenne after Mary Dee,-115.11824,36.217766
90,578,SN578,WB Cheyenne after Maverick,-115.230575,36.217349
90,579,SN579,EB Cheyenne after Michael,-115.216273,36.216896
90,580,SN580,WB Cheyenne after Michael,-115.217412,36.217083
90,581,SN581,WB Cheyenne after Miramar,-115.22179,36.217068
90,582,SN582,EB Cheyenne after 5th,-115.133487,36.217619
90,583,SN583,WB Cheyenne after 5th,-115.134599,36.217899
90,585,SN585,WB Cheyenne after Nellis,-115.062955,36.218389
90,586,SN586,EB Cheyenne after Pecos,-115.097855,36.21754
90,587,SN587,WB Cheyenne after Pecos,-115.099191,36.217761
90,588,SN588,EB Cheyenne after Rainbow,-115.241509,36.21803
90,589,SN589,WB Cheyenne after Rainbow,-115.243038,36.21836
90,590,SN590,EB Cheyenne after Ramrod,-115.236069,36.217567
90,591,SN591,EB Cheyenne after Rancho,-115.210977,36.217047
90,592,SN592,WB Cheyenne after Rancho,-115.21366,36.217197
90,593,SN593,WB Cheyenne after Sandy,-115.094366,36.217782
90,594,SN594,WB Cheyenne before Serene,-115.239636,36.218104
90,595,SN595,EB Cheyenne after Simmons,-115.178514,36.217448
90,596,SN596,WB Cheyenne after Simmons,-115.18004,36.21774
90,597,SN597,WB Cheyenne after Soaring Gulls,-115.274772,36.218656
90,598,SN598,EB Cheyenne after Tenaya,-115.250614,36.218069
90,599,SN599,WB Cheyenne after Tenaya,-115.252099,36.218387
90,600,SN600,EB Cheyenne after Terry,-115.220869,36.216799
90,601,SN601,EB Cheyenne after Torrey Pines,-115.233379,36.21735
90,602,SN602,WB Cheyenne after Torrey Pines,-115.234819,36.217747
90,603,SN603,EB Cheyenne after Trade,-115.154082,36.217689
90,604,SN604,WB Cheyenne after Trade,-115.154983,36.217898
90,605,SN605,EB Cheyenne after Van Der Meer,-115.106618,36.217528
90,606,SN606,WB Cheyenne before Campus,-115.104139,36.2178
90,607,SN607,WB Cheyenne before Crawford,-115.109598,36.217757
90,608,SN608,EB Cheyenne after Walnut,-115.08848,36.21759
90,609,SN609,WB Cheyenne after Walnut,-115.09012,36.217848
90,611,SN611,EB Cheyenne after Whispering Willow,-115.228537,36.216959
90,618,SN618,SB Civic Center after Basswood,-115.121108,36.216603
90,619,SN619,SB Civic Center after Brooks,-115.121063,36.213701
90,620,SN620,NB Civic Center after Brooks,-115.12081,36.214436
90,623,SN623,NB Civic Center after Cartier,-115.120914,36.207009
90,624,SN624,SB Civic Center before Putnam,-115.121164,36.206097
90,627,SN627,NB Civic Center after Evans,-115.120758,36.210899
90,628,SN628,SB Civic Center after Evans,-115.121242,36.210036
90,631,SN631,SB Civic Center after Las Vegas,-115.119914,36.201363
90,632,SN632,NB Civic Center after Lake Mead,-115.116351,36.196504
90,633,SN633,SB Civic Center after Lake Mead,-115.116408,36.194814
90,635,SN635,NB Civic Center after McDaniel,-115.119211,36.201036
90,636,SN636,SB Civic Center before Lake Mead,-115.118513,36.198404
90,637,SN637,NB Civic Center after Owens,-115.116019,36.189073
90,639,SN639,NB Civic Center after Tonopah,-115.116101,36.192527
90,640,SN640,SB Civic Center after Tonopah,-115.116354,36.191719
90,653,SN653,SB Commerce after Duchess,-115.142938,36.20651
90,655,SN655,NB Campus at CSN Cheyenne Campus,-115.106982,36.218619
90,667,SN667,EB Craig after Allen,-115.188701,36.239253
90,668,SN668,EB Craig after Bradley,-115.2161,36.238719
90,669,SN669,EB Craig after Calimesa,-115.07182,36.240239
90,670,SN670,EB Craig after Ferrell,-115.184171,36.239291
90,671,SN671,EB Craig after Ivory,-115.218897,36.238759
90,672,SN672,EB Craig after Jones,-115.224937,36.238848
90,674,SN674,EB Craig after Lamb,-115.079038,36.240308
90,675,SN675,WB Craig after Lamont,-115.066862,36.240581
90,676,SN676,EB Craig after Lamont,-115.065255,36.240324
90,677,SN677,EB Craig before Las Vegas,-115.056551,36.240424
90,679,SN679,EB Craig after Nellis,-115.059716,36.240357
90,680,SN680,WB Craig after Puebla,-115.071344,36.240531
90,682,SN682,EB Craig after San Mateo,-115.202579,36.238789
90,683,SN683,EB Craig after Thom,-115.210311,36.23864
90,684,SN684,WB Craig after Nellis,-115.063253,36.240618
90,685,SN685,EB Craig after Valley,-115.197507,36.238983
90,688,SN688,NB Decatur after Alexander,-115.207321,36.232485
90,690,SN690,NB Decatur before Alpine,-115.205705,36.159682
90,691,SN691,NB Decatur after Alta,-115.205845,36.167464
90,692,SN692,SB Decatur after Alta,-115.206214,36.165556
90,693,SN693,NB Decatur after Bonanza,-115.205883,36.177694
90,694,SN694,SB Decatur after Bonanza,-115.206213,36.177067
90,695,SN695,SB Decatur after Carmen,-115.206286,36.1826
90,696,SN696,NB Decatur after Casa Bonita,-115.207379,36.227063
90,697,SN697,SB Decatur after Charleston,-115.206034,36.158573
90,698,SN698,NB Decatur after Cheyenne,-115.207344,36.217872
90,699,SN699,NB Decatur before Concord Village,-115.205881,36.192602
90,701,SN701,NB Decatur after Desert Inn,-115.20791,36.130532
90,702,SN702,SB Decatur after Desert Inn,-115.20826,36.129394
90,703,SN703,SB Decatur after Lake Mead,-115.206217,36.191967
90,704,SN704,SB Decatur after Doe,-115.208152,36.153076
90,705,SN705,SB Decatur before Edna,-115.208289,36.138093
90,706,SN706,NB Decatur before Eldora,-115.20796,36.141842
90,707,SN707,SB Decatur after Eldora,-115.208294,36.140385
90,709,SN709,NB Decatur after Eugene,-115.205709,36.199684
90,710,SN710,SB Decatur after Eugene,-115.206073,36.198499
90,711,SN711,SB Decatur after Evergreen,-115.206115,36.162578
90,712,SN712,NB Decatur after Faircenter,-115.205773,36.157983
90,713,SN713,NB Decatur after Flamingo,-115.207908,36.115979
90,714,SN714,SB Decatur after Flamingo,-115.208261,36.1144
90,715,SN715,NB Decatur before Alta,-115.205837,36.165002
90,718,SN718,NB Decatur after Lake Mead,-115.205799,36.195986
90,719,SN719,SB Decatur after Lake Mead,-115.206163,36.194717
90,720,SN720,SB Decatur after Meadows,-115.206207,36.169212
90,722,SN722,NB Decatur before Oakey,-115.207985,36.148482
90,723,SN723,SB Decatur after OBannion,-115.208359,36.147679
90,724,SN724,NB Decatur after Oakey,-115.207801,36.152826
90,725,SN725,SB Decatur after Oakey,-115.208336,36.151265
90,726,SN726,SB Decatur after Palmyra,-115.208261,36.133142
90,727,SN727,NB Decatur after Pennwood,-115.207941,36.137769
90,728,SN728,NB Decatur after Rancho,-115.207717,36.213606
90,730,SN730,NB Decatur before Gowan,-115.207403,36.223818
90,731,SN731,NB Decatur before Rancho,-115.20551,36.206067
90,734,SN734,SB Decatur after Rochelle,-115.208207,36.11074
90,735,SN735,NB Decatur before Harmon,-115.207827,36.10764
90,736,SN736,SB Decatur after Royal Ridge,-115.208179,36.105853
90,737,SN737,NB Decatur after Sahara,-115.207951,36.145784
90,738,SN738,SB Decatur after Sahara,-115.208319,36.143956
90,739,SN739,NB Decatur after San Miguel,-115.207413,36.235758
90,740,SN740,NB Decatur after Sirius,-115.20793,36.134425
90,741,SN741,NB Decatur after Smoke Ranch,-115.205527,36.20349
90,742,SN742,SB Decatur after Smoke Ranch,-115.20598,36.202196
90,743,SN743,NB Decatur after Spring Mountain,-115.207954,36.126726
90,744,SN744,SB Decatur after Spring Mountain,-115.208306,36.125382
90,745,SN745,NB Decatur across from Supai,-115.207954,36.119131
90,747,SN747,NB Decatur after Tropicana,-115.207778,36.101936
90,748,SN748,NB Decatur after Twain,-115.208001,36.122985
90,749,SN749,SB Decatur after Twain,-115.20834,36.121905
90,750,SN750,NB Decatur after University,-115.207864,36.110464
90,751,SN751,NB Decatur after Vegas,-115.205967,36.188635
90,752,SN752,SB Decatur after Vegas,-115.206351,36.187262
90,753,SN753,SB Decatur after Via San Andros,-115.208263,36.117274
90,754,SN754,NB Decatur after Washington,-115.205934,36.181462
90,755,SN755,SB Decatur after Washington,-115.206264,36.180144
90,756,SN756,NB Decatur after Westmoreland,-115.205983,36.185404
90,763,SN763,EB Desert Inn before Backstage,-115.087942,36.129501
90,764,SN764,EB Desert Inn after Yuma,-115.122506,36.129772
90,765,SN765,NB Lamb after Boulder,-115.083136,36.130644
90,766,SN766,WB Desert Inn after Boulder,-115.085164,36.129757
90,767,SN767,WB Desert Inn after Brentwood,-115.096961,36.129771
90,768,SN768,WB Desert Inn after Burnham,-115.122498,36.129952
90,772,SN772,WB Desert Inn after Crystal Water,-115.289704,36.129811
90,775,SN775,EB Desert Inn after Eastern,-115.117891,36.12973
90,776,SN776,WB Desert Inn after Eastern,-115.119356,36.129952
90,777,SN777,WB Desert Inn after Hidden Canyon,-115.293392,36.129879
90,778,SN778,WB Desert Inn after Joe W Brown,-115.146624,36.129789
90,779,SN779,WB Desert Inn after La Canada,-115.132602,36.129921
90,782,SN782,EB Desert Inn after Mojave,-115.104549,36.129637
90,783,SN783,WB Desert Inn after Mojave,-115.105907,36.129863
90,784,SN784,WB Desert Inn after Mariner Bay,-115.284794,36.129743
90,786,SN786,EB Desert Inn after Pawnee,-115.127338,36.129789
90,788,SN788,EB Desert Inn after Pecos,-115.100498,36.129601
90,789,SN789,WB Desert Inn after Pecos,-115.101815,36.129831
90,790,SN790,WB Desert Inn after McLeod,-115.110985,36.129901
90,791,SN791,EB Desrt Inn after Pecos McLeod Int,-115.109214,36.129666
90,792,SN792,EB Desert Inn after Sandhill,-115.091344,36.129497
90,793,SN793,WB Desert Inn after Sandhill,-115.093101,36.129727
90,795,SN795,EB Desert Inn before Seminole,-115.131822,36.129724
90,796,SN796,WB Desert Inn before Pawnee,-115.127664,36.129981
90,797,SN797,WB Desert Inn after Surfline,-115.302718,36.129946
90,799,SN799,EB Desert Inn after Topaz,-115.113586,36.129694
90,800,SN800,WB Desert Inn after Topaz,-115.114922,36.129927
90,801,SN801,WB Desert Inn after Ventana Hills,-115.298261,36.129942
90,802,SN802,EB Desert Inn after Wayne,-115.096203,36.129549
90,816,SN816,SB Durango after Paddle Wheel,-115.2791,36.134535
90,822,SN822,SB Durango after Eldora,-115.279106,36.139997
90,823,SN823,SB Durango after Starboard,-115.279101,36.137366
90,824,SN824,NB Durango before Westcliff,-115.277808,36.170148
90,827,SN827,SB Eaker before Lamb,-115.081719,36.244413
90,828,SN828,NB Eastern before Stewart,-115.115695,36.165548
90,829,SN829,NB Eastern after Ballard,-115.118734,36.158166
90,830,SN830,NB Eastern after Bluegrass,-115.118072,36.046217
90,831,SN831,SB Eastern after Bluegrass,-115.118354,36.045564
90,832,SN832,NB Eastern after Bonanza,-115.116073,36.174776
90,833,SN833,SB Eastern after Bonanza,-115.11629,36.172852
90,834,SN834,NB Eastern after Cedar,-115.115886,36.170529
90,835,SN835,SB Eastern after Cedar,-115.116103,36.169651
90,836,SN836,NB Eastern after Chandler,-115.118585,36.074836
90,837,SN837,SB Eastern after Charleston,-115.119054,36.158343
90,838,SN838,NB Eastern after Desert Inn,-115.118404,36.130434
90,839,SN839,SB Eastern after Desert Inn,-115.118713,36.1292
90,840,SN840,NB Eastern after Eldorado,-115.118113,36.053615
90,841,SN841,NB Eastern after Emerson,-115.118568,36.126534
90,842,SN842,NB Eastern after Flamingo,-115.119009,36.115688
90,843,SN843,SB Eastern after Flamingo,-115.119333,36.11378
90,844,SN844,NB Eastern after Franklin,-115.118735,36.155639
90,845,SN845,SB Eastern after Franklin,-115.119004,36.154683
90,846,SN846,SB Eastern before Fremont,-115.117566,36.160725
90,847,SN847,NB Eastern after Fremont,-115.117893,36.160176
90,848,SN848,SB Eastern after Golden Arrow,-115.1187,36.132051
90,849,SN849,NB Eastern after Hacienda,-115.118746,36.09342
90,850,SN850,SB Eastern after Hacienda,-115.119006,36.092328
90,851,SN851,NB Eastern after Harmon,-115.118924,36.107908
90,852,SN852,SB Eastern after Harmon,-115.119215,36.106819
90,853,SN853,NB Eastern after Harris,-115.115992,36.17855
90,854,SN854,NB Eastern after Sunrise,-115.11573,36.163259
90,855,SN855,SB Eastern after Karen,-115.118821,36.139826
90,856,SN856,SB Eastern after Kirk,-115.116273,36.177609
90,857,SN857,NB Eastern after Warm Springs,-115.11835,36.064816
90,859,SN859,NB Eastern after Oakey,-115.11872,36.152173
90,860,SN860,SB Eastern after Oakey,-115.118982,36.151301
90,861,SN861,NB Eastern after Karen,-115.118592,36.141229
90,862,SN862,SB Eastern after Oquendo,-115.11895,36.081505
90,863,SN863,SB Eastern after Owens,-115.11625,36.188128
90,864,SN864,SB Eastern after Palma Vista,-115.118727,36.13591
90,865,SN865,NB Eastern after Palora,-115.118445,36.134499
90,866,SN866,NB Eastern after Patrick,-115.118624,36.080013
90,867,SN867,SB Eastern after Patrick,-115.118884,36.078432
90,868,SN868,SB Eastern after Pueblo,-115.118921,36.124463
90,869,SN869,NB Eastern after Rawhide,-115.118713,36.090209
90,870,SN870,SB Eastern after Rawhide,-115.118982,36.08945
90,871,SN871,NB Eastern after Reno,-115.118795,36.096978
90,872,SN872,SB Eastern after Reno,-115.119046,36.096159
90,873,SN873,SB Eastern after Robindale,-115.118312,36.048957
90,874,SN874,NB Eastern after Robindale,-115.118047,36.050054
90,875,SN875,NB Eastern after Rochelle,-115.119025,36.111481
90,876,SN876,SB Eastern after Rochelle,-115.119279,36.110553
90,877,SN877,NB Eastern before Russell,-115.118679,36.085495
90,878,SN878,SB Eastern after Russell,-115.119007,36.085678
90,879,SN879,NB Eastern after Sahara,-115.118648,36.145313
90,880,SN880,SB Eastern after Sahara,-115.118945,36.143589
90,881,SN881,NB Eastern after Searles,-115.115966,36.185822
90,882,SN882,SB Eastern after Searles,-115.116213,36.184325
90,884,SN884,NB Eastern after St Louis,-115.118695,36.148711
90,885,SN885,SB Eastern after St Louis,-115.118926,36.147753
90,886,SN886,SB Eastern after Stewart,-115.115946,36.165751
90,887,SN887,SB Eastern after Isabelle,-115.116075,36.162553
90,888,SN888,NB Eastern after Sunset Park,-115.118462,36.068006
90,889,SN889,NB Eastern after Sunset,-115.118562,36.072358
90,890,SN890,SB Eastern after Sunset,-115.118801,36.07043
90,891,SN891,SB Eastern after Tioga,-115.119088,36.120507
90,892,SN892,NB Eastern after Tompkins,-115.118892,36.104319
90,893,SN893,SB Eastern before Tropicana,-115.11913,36.102031
90,894,SN894,NB Eastern after Tropicana,-115.118832,36.1008
90,895,SN895,SB Eastern after Tropicana,-115.119084,36.099028
90,896,SN896,NB Eastern after Twain,-115.118729,36.122755
90,897,SN897,NB Eastern after Vegas Valley,-115.118437,36.137729
90,898,SN898,NB Eastern after Sonrisa,-115.118849,36.120032
90,899,SN899,SB Eastern after Viking,-115.119275,36.117272
90,900,SN900,SB Eastern before Warm Springs,-115.118498,36.058568
90,901,SN901,NB Eastern after Warm Springs,-115.118155,36.057454
90,902,SN902,SB Eastern after Warm Springs,-115.11843,36.055495
90,903,SN903,NB Eastern after Washington,-115.115931,36.181906
90,904,SN904,SB Eastern after Washington,-115.116211,36.18043
90,915,SN915,NB Englestad after Recco,-115.147603,36.19645
90,916,SN916,NB Englestad before Lilly,-115.147291,36.199935
90,917,SN917,WB Flamingo after Algonquin,-115.134203,36.114735
90,918,SN918,EB Flamingo after Annie Oakley,-115.086206,36.114958
90,919,SN919,EB Flamingo after Arville,-115.198739,36.115299
90,920,SN920,WB Flamingo before Arville,-115.199147,36.115658
90,921,SN921,EB Flamingo before Torrey Pines,-115.237019,36.11438
90,922,SN922,WB Flamingo after Baldwin,-115.062289,36.115067
90,923,SN923,WB Flamingo after Boulder,-115.0682,36.115067
90,924,SN924,WB Flamingo before Broadgate,-115.086529,36.115257
90,925,SN925,EB Flamingo after Buffalo,-115.260057,36.114539
90,926,SN926,EB Flamingo after Burnham,-115.123411,36.114519
90,927,SN927,WB Flamingo after Burnham,-115.124402,36.114797
90,928,SN928,WB Flamingo after Calle San Remo,-115.204247,36.115658
90,929,SN929,WB Flamingo after Cambridge,-115.14279,36.114792
90,930,SN930,EB Flamingo after Cameron,-115.20361,36.115343
90,932,SN932,EB Flamingo after Claymont,-115.141726,36.11449
90,933,SN933,EB Flamingo after Decatur,-115.207468,36.115328
90,934,SN934,WB Flamingo after Decatur,-115.208734,36.115581
90,935,SN935,WB Flamingo after Delos,-115.211657,36.115437
90,936,SN936,EB Flamingo before Don Bonito,-115.080375,36.114827
90,937,SN937,EB Flamingo after Duneville,-115.220199,36.114619
90,938,SN938,WB Flamingo after Duneville,-115.221197,36.114889
90,940,SN940,EB Flamingo after Eastern,-115.118247,36.114582
90,941,SN941,WB Flamingo after Eastern,-115.1199,36.11483
90,942,SN942,EB Flamingo after Edmond,-115.211861,36.115101
90,943,SN943,EB Flamingo after Torrey Pines,-115.228991,36.114378
90,944,SN944,WB Flamingo after El Camino,-115.229902,36.114668
90,945,SN945,EB Flamingo after Eucalyptus,-115.112663,36.114777
90,946,SN946,EB Flamingo at The Tuscany,-115.160782,36.114249
90,949,SN949,EB Flamingo after Hildebrand,-115.104619,36.11499
90,950,SN950,WB Flamingo after Hotel Rio,-115.187839,36.115577
90,951,SN951,WB Flamingo after Howard Hughes,-115.159722,36.114547
90,952,SN952,WB Flamingo after Jimmy Durante,-115.052215,36.114933
90,953,SN953,EB Flamingo after Jones,-115.223681,36.114417
90,954,SN954,WB Flamingo after Jones,-115.225499,36.114651
90,955,SN955,EB Flamingo after Koval,-115.162989,36.11435
90,956,SN956,WB Flamingo after Koval,-115.164967,36.11467
90,957,SN957,EB Flamingo after Las Vegas,-115.171635,36.114505
90,958,SN958,WB Flamingo after Las Vegas,-115.174108,36.114868
90,959,SN959,EB Flamingo after Lindell,-115.2159,36.114858
90,960,SN960,WB Flamingo after Lindell,-115.21738,36.115107
90,961,SN961,EB Flamingo after Maryland,-115.136057,36.11444
90,962,SN962,WB Flamingo after Maryland,-115.139003,36.114731
90,963,SN963,WB Flamingo before Mountain Vista,-115.073046,36.115037
90,964,SN964,EB Flamingo after Mountain Vista,-115.072942,36.114815
90,965,SN965,WB Flamingo after Nellis,-115.06533,36.115028
90,966,SN966,WB Flamingo after Cabana,-115.057638,36.115228
90,967,SN967,EB Flamingo after New Forest,-115.256567,36.114508
90,968,SN968,EB Flamingo after Palos Verdes,-115.149887,36.114613
90,969,SN969,WB Flamingo after Palos Verdes,-115.151226,36.114835
90,970,SN970,EB Flamingo after Paradise,-115.152793,36.114323
90,971,SN971,WB Flamingo after Paradise,-115.15475,36.114435
90,972,SN972,EB Flamingo after Hospitality,-115.156381,36.114177
90,973,SN973,WB Flamingo after Pearl,-115.097128,36.115437
90,974,SN974,EB Flamingo after Pecos,-115.100032,36.115111
90,975,SN975,WB Flamingo after Pecos,-115.101617,36.115365
90,978,SN978,EB Flamingo after Rainbow,-115.242402,36.114381
90,979,SN979,EB Flamingo after Ravenwood,-115.248573,36.114416
90,980,SN980,WB Flamingo after Redwood,-115.239669,36.11471
90,981,SN981,WB Flamingo after Sandalwood,-115.24794,36.114677
90,982,SN982,EB Flamingo after Sandhill,-115.090935,36.115113
90,983,SN983,WB Flamingo after Sandhill,-115.093068,36.115457
90,984,SN984,WB Flamingo after Grace,-115.079074,36.115051
90,985,SN985,EB Flamingo after Sheppard,-115.068281,36.11481
90,986,SN986,WB Flamingo after McLeod,-115.113229,36.11508
90,987,SN987,EB Flamingo after Spencer,-115.128009,36.114488
90,988,SN988,WB Flamingo after Spencer,-115.129295,36.114765
90,989,SN989,WB Flamingo after Spring Leaf,-115.244036,36.114625
90,990,SN990,EB Flamingo after University Ctr,-115.145735,36.11455
90,991,SN991,WB Flamingo after University Ctr,-115.147364,36.114857
90,992,SN992,EB Flamingo after Tamarus,-115.132623,36.114462
90,993,SN993,EB Flamingo after Tenaya,-115.251535,36.114449
90,994,SN994,EB Flamingo after Torrey Pines,-115.233312,36.114381
90,995,SN995,WB Flamingo after Torrey Pines,-115.234497,36.11471
90,996,SN996,EB Flamingo after Valley View,-115.189479,36.11539
90,997,SN997,WB Flamingo after Gold Coast,-115.192898,36.115718
90,1000,SN1000,EB Flamingo before Hugh Hefner,-115.193618,36.115359
90,1001,SN1001,WB Flamingo after Wynn,-115.195258,36.115718
90,1011,SN1011,SB Fremont before 15th,-115.129813,36.164484
90,1017,SN1017,NB Fremont before Charleston,-115.111989,36.155321
90,1020,SN1020,SB Fremont after Bruce,-115.124434,36.162164
90,1021,SN1021,WB Fremont after Bruce,-115.125563,36.162848
90,1024,SN1024,WB Fremont after Eastern,-115.119168,36.160082
90,1031,SN1031,NB Fremont after Sahara,-115.101677,36.146203
90,1033,SN1033,NB Fremont after St Louis,-115.105142,36.149271
90,1034,SN1034,SB Fremont after St Louis,-115.104553,36.148161
90,1035,SN1035,NB Sky Pointe at Eagle Crest,-115.257381,36.268021
90,1036,SN1036,NB Gibson after Auto Show,-115.028895,36.0483
90,1037,SN1037,SB Gibson after Painted Daisy,-115.029193,36.047747
90,1039,SN1039,NB Gibson after Auto Show,-115.029002,36.04574
90,1041,SN1041,NB Gibson after Valley Auto,-115.028779,36.051157
90,1042,SN1042,SB Gibson after Kelso Dunes,-115.029138,36.050649
90,1045,SN1045,EB Gowan after Rio Robles,-115.102038,36.224997
90,1056,SN1056,SB Green Valley after High View,-115.082592,36.066625
90,1059,SN1059,SB Green Valley after La Mesa,-115.084284,36.063318
90,1063,SN1063,SB Green Valley after Lone Pine,-115.085106,36.060125
90,1064,SN1064,SB Green Valley before Robindale,-115.082623,36.051603
90,1066,SN1066,SB Green Valley after Robindale,-115.082539,36.048555
90,1068,SN1068,SB Green Valley after Sunset,-115.082585,36.070263
90,1069,SN1069,SB Green Valley after Warm Springs,-115.084061,36.055913
90,1078,SN1078,EB Harmon after Boulder,-115.05807,36.108748
90,1094,SN1094,EB Harmon before Jimmy Durante,-115.053115,36.110286
90,1118,SN1118,EB Hillpointe before Hillsgate,-115.290368,36.198199
90,1119,SN1119,EB Hillpointe after Hills Center,-115.300037,36.198108
90,1120,SN1120,EB Hillpointe at Pinewood Hills,-115.294911,36.19926
90,1121,SN1121,SB Hills Center after Hillpointe,-115.300672,36.197682
90,1123,SN1123,SB Hills Center after Lake Mead,-115.300023,36.205549
90,1126,SN1126,WB Owens after Lamb,-115.0806,36.188628
90,1127,SN1127,WB Washington after D,-115.147458,36.181
90,1134,SN1134,WB Horizon before Pacific,-114.986655,36.012652
90,1136,SN1136,EB Horizon after College,-114.962088,36.012528
90,1137,SN1137,WB Horizon after College,-114.964922,36.01278
90,1139,SN1139,WB Horizon after Greenway,-114.977503,36.012683
90,1140,SN1140,WB Horizon after Mona,-114.968112,36.012709
90,1144,SN1144,EB Horizon after Skyline,-114.98071,36.012429
90,1145,SN1145,WB Horizon after Skyline,-114.981925,36.012664
90,1149,SN1149,NB Sammy Dav Jr after Circ Circ Dr,-115.16738,36.139799
90,1150,SN1150,SB Sammy Dav Jr after Circ Circ Dr,-115.168188,36.139178
90,1153,SN1153,SB Sammy Davis Jr after So Bridge,-115.165669,36.143038
90,1154,SN1154,SB Sammy Davis Jr before Genting,-115.171428,36.134438
90,1168,SN1168,NB Jones after Alfred,-115.224316,36.207688
90,1169,SN1169,NB Jones after Alta,-115.223692,36.166865
90,1170,SN1170,SB Jones before Alta,-115.223915,36.16687
90,1171,SN1171,NB Jones after Carl,-115.22388,36.192441
90,1172,SN1172,SB Jones after Carl,-115.224107,36.19175
90,1173,SN1173,NB Jones after Carmen,-115.223854,36.185225
90,1174,SN1174,SB Jones after Carmen,-115.224038,36.184052
90,1175,SN1175,SB Jones after Cartier,-115.224232,36.205754
90,1176,SN1176,NB Jones after Charleston,-115.223793,36.160687
90,1177,SN1177,SB Jones after Charleston,-115.224115,36.158511
90,1178,SN1178,NB Jones at US HWY 95 North,-115.223888,36.176099
90,1179,SN1179,SB Jones after Cheyenne,-115.225809,36.216187
90,1182,SN1182,NB Jones after Palmyra,-115.224893,36.133679
90,1183,SN1183,SB Jones after Dayton,-115.224025,36.169359
90,1184,SN1184,SB Jones after Denver,-115.224147,36.176153
90,1185,SN1185,NB Jones after Desert Inn,-115.224842,36.129903
90,1186,SN1186,SB Jones after Desert Inn,-115.225092,36.128257
90,1187,SN1187,SB Jones after Edna,-115.225239,36.135743
90,1188,SN1188,SB Jones after Eldora,-115.22532,36.139405
90,1189,SN1189,SB Jones before Elton,-115.224256,36.172308
90,1190,SN1190,NB Jones after Eugene,-115.223712,36.199064
90,1191,SN1191,SB Jones after Eugene,-115.223947,36.198319
90,1192,SN1192,NB Jones after Evergreen,-115.22372,36.164019
90,1193,SN1193,SB Jones after Evergreen,-115.22398,36.162355
90,1194,SN1194,NB Jones before Upland,-115.223921,36.171095
90,1195,SN1195,NB Jones after Flamingo,-115.224762,36.115467
90,1196,SN1196,SB Jones after Flamingo,-115.225032,36.113734
90,1197,SN1197,SB Jones after Foothill,-115.22524,36.09577
90,1198,SN1198,NB Jones after Granada,-115.22382,36.178906
90,1199,SN1199,SB Jones after Gunderson,-115.22508,36.109687
90,1200,SN1200,SB Jones after Harmon,-115.225123,36.106427
90,1201,SN1201,NB Jones after Heather Mist,-115.225439,36.215103
90,1202,SN1202,SB Jones after Heather Mist,-115.225516,36.214252
90,1203,SN1203,NB Jones after Lake Mead,-115.223781,36.19642
90,1204,SN1204,SB Jones after Lake Mead,-115.224018,36.195237
90,1205,SN1205,NB Jones after Eldora,-115.225079,36.140926
90,1208,SN1208,SB Jones before OBannon,-115.225593,36.148161
90,1209,SN1209,NB Jones after Obannon,-115.225337,36.14874
90,1210,SN1210,NB Jones after Oakey,-115.225448,36.152226
90,1211,SN1211,SB Jones after Oakey,-115.225716,36.151474
90,1212,SN1212,SB Jones after Palmyra,-115.225166,36.132327
90,1214,SN1214,SB Jones after Peak,-115.224795,36.209449
90,1215,SN1215,NB Jones after Rochelle,-115.224796,36.111341
90,1217,SN1217,NB Jones after Sahara,-115.225154,36.145172
90,1218,SN1218,SB Jones after Sahara,-115.22543,36.14366
90,1219,SN1219,NB Jones after Sheila,-115.224688,36.210133
90,1220,SN1220,NB Jones after Smoke Ranch,-115.22367,36.203391
90,1221,SN1221,SB Jones after Smoke Ranch,-115.223836,36.202507
90,1222,SN1222,NB Jones after Spring Mountain,-115.224819,36.12595
90,1223,SN1223,SB Jones after Spring Mountain,-115.225075,36.124625
90,1224,SN1224,NB Jones after Edna,-115.224998,36.137203
90,1225,SN1225,NB Jones after Transverse,-115.224352,36.157265
90,1226,SN1226,SB Jones after Transverse,-115.225534,36.156352
90,1227,SN1227,NB Jones after Tropicana,-115.224914,36.100788
90,1228,SN1228,SB Jones before Tropicana,-115.225185,36.101504
90,1230,SN1230,SB Jones after Twain,-115.225052,36.121227
90,1231,SN1231,NB Jones after Twain,-115.224793,36.122323
90,1232,SN1232,NB Jones after Vegas,-115.223967,36.189151
90,1233,SN1233,SB Jones after Vegas,-115.22414,36.187952
90,1234,SN1234,NB Jones after Viking,-115.224776,36.118652
90,1235,SN1235,SB Jones after Viking,-115.225039,36.117511
90,1237,SN1237,NB Jones after Washington,-115.223764,36.181842
90,1238,SN1238,SB Jones after Washington,-115.223951,36.180285
90,1247,SN1247,SB Koval before Rochelle,-115.164096,36.111934
90,1248,SN1248,NB Koval after Flamingo,-115.16391,36.115147
90,1249,SN1249,SB Koval after Flamingo,-115.164164,36.113939
90,1250,SN1250,NB Koval after Harmon,-115.163837,36.108678
90,1251,SN1251,SB Koval after Harmon,-115.164047,36.107424
90,1252,SN1252,NB Koval after Reno,-115.163699,36.098679
90,1253,SN1253,NB Koval after Rochelle,-115.163877,36.11227
90,1254,SN1254,SB Koval after Sands,-115.164106,36.121593
90,1255,SN1255,NB Koval after Tompkins,-115.163777,36.104758
90,1256,SN1256,SB Koval after Tompkins,-115.164001,36.104057
90,1257,SN1257,NB Koval after Tropicana,-115.163784,36.102309
90,1258,SN1258,SB Koval after Tropicana,-115.163973,36.100262
90,1259,SN1259,NB Koval after Westchester,-115.16395,36.11957
90,1260,SN1260,SB Koval after Krueger,-115.164172,36.118991
90,1261,SN1261,SB Koval after Winnick,-115.164146,36.116955
90,1262,SN1262,NB Las Vegas before Shelbourne,-115.17214,36.038379
90,1266,SN1266,SB Las Vegas before Belmont,-115.10711,36.209821
90,1268,SN1268,SB Las Vegas before Bonanza,-115.136656,36.175818
90,1269,SN1269,NB Las Vegas after Bonanza,-115.136601,36.175499
90,1273,SN1273,SB Las Vegas before Cashman,-115.135317,36.178181
90,1274,SN1274,NB Las Vegas at Cashman Field,-115.134872,36.178703
90,1281,SN1281,SB Las Vegas before Nellis,-115.05852,36.238269
90,1284,SN1284,SB Las Vegas before Foremaster,-115.134196,36.186787
90,1291,SN1291,NB Las Vegas before Lamb,-115.081104,36.224724
90,1300,SN1300,NB Las Vegas before McCarran,-115.113167,36.205967
90,1301,SN1301,SB Las Vegas before McCarran,-115.112494,36.206662
90,1302,SN1302,SB Las Vegas after Mesquite,-115.138585,36.17284
90,1307,SN1307,NB Las Vegas after Owens,-115.133951,36.188882
90,1308,SN1308,NB Las Vegas after Pecos,-115.098109,36.214782
90,1310,SN1310,NB Las Vegas after Puebla,-115.070222,36.231108
90,1311,SN1311,SB Las Vegas after Puebla,-115.072864,36.229859
90,1314,SN1314,SB Las Vegas after Hamilton,-115.124146,36.199762
90,1315,SN1315,NB Las Vegas after Bruce,-115.124682,36.199081
90,1316,SN1316,NB Las Vegas after Stewart,-115.138588,36.172209
90,1318,SN1318,NB Las Vegas after Tonopah,-115.132013,36.192715
90,1326,SN1326,SB Las Vegas before Washington,-115.134167,36.181954
90,1328,SN1328,NB Las Vegas after Agate,-115.17212,36.02522
90,1329,SN1329,SB Las Vegas after Agate,-115.17255,36.024209
90,1332,SN1332,NB Las Vegas at the Paris,-115.172729,36.112511
90,1335,SN1335,SB Las Vegas at Moberly,-115.17249,36.047819
90,1339,SN1339,SB Las Vegas at Caesars Palace,-115.173037,36.11787
90,1343,SN1343,SB Las Vegas after Charleston,-115.148276,36.157801
90,1344,SN1344,SB LV Blvd at Slots-A-Fun/Circ Circ,-115.162774,36.135662
90,1345,SN1345,EB Washington after Buffalo,-115.259179,36.181297
90,1346,SN1346,NB Las Vegas at Circus Circus,-115.162685,36.135215
90,1348,SN1348,NB LV Blvd at Mandalay By/Four Seas,-115.172673,36.090364
90,1349,SN1349,NB Las Vegas at Sky Las Vegas,-115.160931,36.13802
90,1351,SN1351,SB Las Vegas at Excalibur,-115.173216,36.099836
90,1352,SN1352,SB Las Vegas before Serene,-115.17255,36.021577
90,1353,SN1353,NB Las Vegas at The Wynn,-115.168166,36.126887
90,1354,SN1354,SB Las Vegas at Fashion Show Mall,-115.168908,36.126454
90,1356,SN1356,NB Las Vegas at Harrahs,-115.172542,36.119215
90,1358,SN1358,SB LV Blvd at Fremont St Experience,-115.140609,36.16953
90,1360,SN1360,SB Las Vegas at Encore,-115.166181,36.130604
90,1363,SN1363,NB Las Vegas at Luxor/Mandalay Bay,-115.172669,36.094582
90,1364,SN1364,SB Las Vegas at Mandalay Bay,-115.173152,36.092973
90,1366,SN1366,NB Las Vegas at Planet Hollywood,-115.172706,36.109652
90,1371,SN1371,NB Las Vegas at MGM/Showcase Mall,-115.172671,36.102653
90,1374,SN1374,SB Las Vegas before Clark,-115.143657,36.164917
90,1375,SN1375,SB Las Vegas at Luxor,-115.173175,36.094748
90,1376,SN1376,SB Las Vegas at The Mirage,-115.172562,36.120245
90,1377,SN1377,NB Las Vegas at Venetian,-115.170851,36.12287
90,1378,SN1378,SB Las Vegas at Park MGM,-115.173275,36.104699
90,1380,SN1380,SB Las Vegas after Oakey,-115.152875,36.150795
90,1381,SN1381,NB Las Vegas before Oakey,-115.152544,36.150864
90,1383,SN1383,NB Las Vegas before Pebble,-115.172156,36.027652
90,1384,SN1384,SB Las Vegas after Pebble,-115.172532,36.027481
90,1386,SN1386,SB Las Vegas before Sunset,-115.172838,36.074741
90,1389,SN1389,SB Las Vegas after Russell,-115.17306,36.085446
90,1391,SN1391,NB Las Vegas after Sahara,-115.156746,36.144327
90,1392,SN1392,SB Las Vegas after Sahara,-115.158269,36.142726
90,1394,SN1394,SB Las Vegas after Shelbourne,-115.17255,36.038399
90,1395,SN1395,NB LV Blvd after Convention Ctr Dr,-115.164016,36.133257
90,1397,SN1397,NB Las Vegas after St Louis,-115.153654,36.149105
90,1398,SN1398,SB Las Vegas before Resorts World,-115.164049,36.133859
90,1400,SN1400,SB Las Vegas at the Strat,-115.154824,36.147838
90,1401,SN1401,NB Las Vegas at the STRAT,-115.155255,36.146716
90,1403,SN1403,SB Las Vegas at Treasure Island,-115.171364,36.122751
90,1405,SN1405,NB Las Vegas before Tropicana,-115.172736,36.099305
90,1407,SN1407,NB Las Vegas at Hilton Grand Vac,-115.159481,36.140246
90,1408,SN1408,SB LV Blvd at Hilton Grnd Vacations,-115.160519,36.139232
90,1409,SN1409,NB Las Vegas after Wigwam,-115.172186,36.03667
90,1410,SN1410,SB Las Vegas before Wigwam,-115.17255,36.036147
90,1411,SN1411,NB Las Vegas after Windmill,-115.172178,36.043568
90,1412,SN1412,SB Las Vegas after Blue Diamond,-115.172557,36.041767
90,1416,SN1416,EB Lake Mead before D,-115.148017,36.195603
90,1417,SN1417,EB Lake Mead after H,-115.151054,36.195581
90,1418,SN1418,EB Lake Mead after J,-115.155009,36.195591
90,1419,SN1419,WB Lake Mead after 5th,-115.134408,36.197029
90,1420,SN1420,EB Lake Mead before Jones,-115.226577,36.195668
90,1421,SN1421,WB Lake Mead after San Simeon,-115.22757,36.195904
90,1422,SN1422,WB Lake Mead after Bangle,-115.144108,36.195879
90,1423,SN1423,EB Lake Mead after Beesley,-115.039194,36.195946
90,1424,SN1424,WB Lake Mead before Belmont,-115.106519,36.196038
90,1425,SN1425,EB Lake Mead after Belmont,-115.10632,36.195767
90,1426,SN1426,EB Lake Mead after Betty,-115.057114,36.196123
90,1427,SN1427,WB Lake Mead after Betty,-115.05807,36.196344
90,1429,SN1429,EB Lake Mead after Bruce,-115.12327,36.195688
90,1430,SN1430,WB Lake Mead after Bruce,-115.125808,36.195928
90,1431,SN1431,EB Lake Mead after Buffalo,-115.258657,36.195979
90,1432,SN1432,WB Lake Mead after Buffalo,-115.262157,36.196427
90,1433,SN1433,EB Lake Mead after Christy,-115.051997,36.196116
90,1434,SN1434,WB Lake Mead after Christy,-115.053265,36.196345
90,1435,SN1435,EB Lake Mead after Civic Center,-115.115687,36.195739
90,1436,SN1436,WB Lake Mead after Civic Center,-115.11703,36.195979
90,1437,SN1437,EB Lake Mead after Losee,-115.142299,36.195639
90,1438,SN1438,WB Lake Mead after Comstock,-115.166113,36.19583
90,1439,SN1439,EB Lake Mead before Stella Lake,-115.16526,36.195597
90,1440,SN1440,WB Lake Mead after Concord,-115.157052,36.195814
90,1441,SN1441,EB Lake Mead after McCarran,-115.111787,36.195728
90,1444,SN1444,EB Lake Mead after Decatur,-115.205068,36.195418
90,1445,SN1445,WB Lake Mead after Decatur,-115.206758,36.195596
90,1446,SN1446,EB Lake Mead after Dolly,-115.074307,36.195679
90,1447,SN1447,WB Lake Mead after Dolly,-115.076177,36.195888
90,1448,SN1448,WB Lake Mead after Englestad,-115.14848,36.195824
90,1449,SN1449,WB Lake Mead after Glacier,-115.041014,36.196199
90,1450,SN1450,WB Lake Mead after Harbor Island,-115.279535,36.198266
90,1452,SN1452,WB Lake Mead after Hollywood,-115.027001,36.195745
90,1454,SN1454,EB Lake Mead after James Bilbray,-115.237139,36.195799
90,1455,SN1455,WB Lake Mead after James Bilbray,-115.238323,36.196046
90,1456,SN1456,EB Lake Mead after Jones,-115.223377,36.195608
90,1457,SN1457,WB Lake Mead after Jones,-115.224601,36.195859
90,1458,SN1458,EB Lake Mead after Las Vegas,-115.128618,36.195639
90,1459,SN1459,WB Lake Mead after Las Vegas,-115.129378,36.196018
90,1460,SN1460,EB Lake Mead after Laguna Mist,-115.273779,36.196639
90,1461,SN1461,WB Lake Mead after Laguna Mist,-115.274821,36.196963
90,1463,SN1463,EB Lake Mead after Lamb,-115.079619,36.195498
90,1464,SN1464,WB Lake Mead after Lamb,-115.080944,36.195753
90,1465,SN1465,EB Lake Mead after Lamont,-115.06582,36.195987
90,1466,SN1466,WB Lake Mead after Lamont,-115.067637,36.196189
90,1467,SN1467,WB Lake Mead after Leonard,-115.211148,36.195658
90,1468,SN1468,EB Lake Mead after Lincoln,-115.084237,36.195509
90,1469,SN1469,WB Lake Mead after Lincoln,-115.08503,36.195788
90,1470,SN1470,EB Lake Mead after Linn,-115.047782,36.196115
90,1471,SN1471,WB Lake Mead after Linn,-115.048684,36.196338
90,1473,SN1473,EB Lake Mead after Martin L King,-115.1598,36.19557
90,1474,SN1474,WB Lake Mead after Martin L King,-115.16154,36.195855
90,1475,SN1475,EB Lake Mead after Madeline,-115.201498,36.197559
90,1476,SN1476,WB Lake Mead after Madeline,-115.202411,36.197323
90,1477,SN1477,EB Lake Mead after Mariner,-115.264137,36.196699
90,1478,SN1478,WB Lake Mead after Mariner,-115.265568,36.197199
90,1479,SN1479,EB Lake Mead after Marion,-115.070117,36.195828
90,1480,SN1480,WB Lake Mead after Marion,-115.071677,36.196049
90,1482,SN1482,EB Lake Mead after McDaniel,-115.119727,36.195708
90,1483,SN1483,WB Lake Mead after Michael,-115.215501,36.195721
90,1484,SN1484,EB Lake Mead after Mt Hood,-115.034714,36.19579
90,1485,SN1485,WB Lake Mead before Mt Hood,-115.034496,36.195984
90,1486,SN1486,EB Lake Mead after Nellis,-115.061625,36.196124
90,1487,SN1487,WB Lake Mead after Nellis,-115.06275,36.196349
90,1489,SN1489,EB Lake Mead after Palmer,-115.10236,36.195719
90,1490,SN1490,WB Lake Mead before Brand,-115.103729,36.196018
90,1491,SN1491,EB Lake Mead after Pecos,-115.097258,36.195639
90,1492,SN1492,WB Lake Mead after Pecos,-115.0992,36.195987
90,1493,SN1493,EB Lake Mead after Pueblo Vista,-115.269458,36.196998
90,1494,SN1494,WB Lake Mead after Pueblo Vista,-115.270555,36.197091
90,1495,SN1495,WB Lake Mead before Ivalace,-115.019407,36.197325
90,1496,SN1496,WB Lake Mead after Radwick,-115.022238,36.196176
90,1497,SN1497,WB Lake Mead before Rainbow,-115.240536,36.196079
90,1498,SN1498,EB Lake Mead after Rainbow,-115.240899,36.195859
90,1499,SN1499,WB Lake Mead after Rancho,-115.198052,36.19991
90,1500,SN1500,WB Lake Mead after Revere,-115.153203,36.195804
90,1502,SN1502,WB Lake Mead after Rock Springs,-115.24861,36.196155
90,1503,SN1503,EB Lake Mead after Sandy,-115.093618,36.195608
90,1504,SN1504,WB Lake Mead after Sandy,-115.094429,36.195888
90,1505,SN1505,EB Lake Mead after Saylor,-115.219457,36.195557
90,1506,SN1506,EB Lake Mead before Michael,-115.215757,36.195498
90,1507,SN1507,EB Lake Mead after Shatz,-115.030333,36.195645
90,1508,SN1508,WB Lake Mead before Shatz,-115.03021,36.195861
90,1509,SN1509,EB Lake Mead after Sloan,-115.043499,36.196098
90,1510,SN1510,WB Lake Mead after Sloan,-115.044628,36.196332
90,1511,SN1511,EB Lake Mead before Tonopah,-115.170754,36.195663
90,1512,SN1512,EB Lake Mead after Tenaya,-115.250777,36.195948
90,1513,SN1513,WB Lake Mead after Tenaya,-115.252073,36.196183
90,1514,SN1514,EB Lake Mead after Tequesta,-115.211947,36.195438
90,1517,SN1517,EB Lake Mead after Torrey Pines,-115.232268,36.195739
90,1518,SN1518,WB Lake Mead after Torrey Pines,-115.234504,36.196022
90,1519,SN1519,EB Lake Mead after Valley,-115.198498,36.199389
90,1520,SN1520,EB Lake Mead after Walnut,-115.088547,36.195557
90,1521,SN1521,WB Lake Mead after Walnut,-115.089827,36.195842
90,1523,SN1523,WB Lake Mead after Winwood,-115.220206,36.195799
90,1525,SN1525,EB Lake Mead after Lirio,-115.2294,36.195708
90,1526,SN1526,EB Lake Mead after Ash,-114.971816,36.049077
90,1529,SN1529,EB Lake Mead after Basic,-114.994199,36.035909
90,1530,SN1530,EB Lake Mead after Boulder,-114.980985,36.040121
90,1531,SN1531,EB Lake Mead after Shoshone,-114.966726,36.056588
90,1533,SN1533,EB Lake Mead after Cholla,-114.977385,36.042883
90,1536,SN1536,EB Lake Mead after Atlantic,-114.991559,36.036247
90,1537,SN1537,EB Lake Mead after Ivy,-114.97428,36.045886
90,1539,SN1539,EB Lake Mead before Center,-114.969023,36.053191
90,1541,SN1541,EB Lake Mead after Pawnee,-114.965054,36.059052
90,1545,SN1545,EB Lake Mead after Van Wagenen,-114.999828,36.035208
90,1547,SN1547,WB Lake Mead after Tonopah,-115.170187,36.195847
90,1549,SN1549,NB Lamb before Copper Sage,-115.079823,36.244806
90,1550,SN1550,NB Lamb after Alexander,-115.080018,36.233372
90,1551,SN1551,SB Lamb after Alexander,-115.08031,36.232152
90,1552,SN1552,NB Lamb after Alto,-115.080036,36.211369
90,1554,SN1554,SB Lamb before Stewart,-115.080649,36.170413
90,1555,SN1555,SB Lamb after Baltimore,-115.08317,36.14661
90,1557,SN1557,NB Lamb after Bonanza,-115.08031,36.174045
90,1558,SN1558,SB Lamb after Bonanza,-115.080624,36.172286
90,1559,SN1559,NB Lamb after Boston,-115.082978,36.148723
90,1560,SN1560,NB Lamb after Carey,-115.080002,36.203949
90,1561,SN1561,SB Lamb after Carey,-115.080312,36.202404
90,1562,SN1562,NB Lamb after Karen,-115.082773,36.141214
90,1563,SN1563,NB Lamb after Charleston,-115.080107,36.159647
90,1564,SN1564,SB Lamb after Charleston,-115.080356,36.158451
90,1565,SN1565,NB Lamb after Cheyenne,-115.079956,36.218371
90,1566,SN1566,SB Lamb before Cheyenne,-115.080227,36.218143
90,1567,SN1567,NB Lamb after Cincinnati,-115.08285,36.145344
90,1568,SN1568,NB Lamb after Colton,-115.079973,36.222056
90,1569,SN1569,SB Lamb after Colton,-115.080247,36.221298
90,1571,SN1571,NB Lamb after Craig,-115.079824,36.241647
90,1572,SN1572,SB Lamb after Craig,-115.080152,36.239798
90,1573,SN1573,NB Lamb before Diamond Head,-115.080341,36.170582
90,1574,SN1574,SB Lamb after Dobson,-115.080291,36.229638
90,1576,SN1576,NB Lamb after Faberge,-115.080018,36.229844
90,1577,SN1577,SB Lamb after Harris,-115.080562,36.176376
90,1578,SN1578,NB Lamb before Judson,-115.080018,36.198952
90,1579,SN1579,SB Lamb after Judson,-115.080292,36.198741
90,1580,SN1580,SB Lamb after Karen,-115.083067,36.140259
90,1581,SN1581,NB Lamb after Kell,-115.079881,36.192416
90,1584,SN1584,NB Lamb after Las Vegas,-115.079998,36.226378
90,1585,SN1585,SB Lamb after Las Vegas,-115.080288,36.224523
90,1586,SN1586,NB Lamb after Lake Mead,-115.08,36.19631
90,1587,SN1587,SB Lamb before Lake Mead,-115.080283,36.196533
90,1588,SN1588,SB Lamb after Manor Green,-115.080447,36.161617
90,1590,SN1590,NB Lamb after Owens,-115.079767,36.188933
90,1591,SN1591,SB Lamb after Owens,-115.080064,36.187903
90,1592,SN1592,NB Lamb after Ridgedale,-115.082833,36.134235
90,1593,SN1593,SB Lamb after Ridgedale,-115.083117,36.133515
90,1594,SN1594,SB Lamb after Sahara,-115.08308,36.143884
90,1595,SN1595,NB Lamb after Sherrill,-115.080221,36.162366
90,1596,SN1596,NB Lamb after Stewart,-115.080375,36.167329
90,1597,SN1597,SB Lamb after Stewart,-115.080626,36.165668
90,1599,SN1599,SB Lamb after Tonopah,-115.080193,36.191068
90,1600,SN1600,NB Lamb after Vegas Valley,-115.082798,36.137752
90,1601,SN1601,SB Lamb after Vegas Valley,-115.083069,36.136355
90,1602,SN1602,NB Lamb after Washington,-115.080217,36.181424
90,1603,SN1603,SB Lamb after Washington,-115.080561,36.180276
90,1604,SN1604,NB Lamb after Wyoming,-115.08308,36.152347
90,1605,SN1605,SB Lamb after Wyoming,-115.083336,36.151354
90,1614,SN1614,WB Lone Mountain before Lincoln,-115.082514,36.247427
90,1618,SN1618,WB Lone Mountain after Rancho,-115.241129,36.247885
90,1623,SN1623,SB Los Feliz before Lake Mead,-115.017753,36.199315
90,1633,SN1633,NB Martin L King after Alexander,-115.161816,36.232463
90,1634,SN1634,SB Martin L King after Alexander,-115.162118,36.231649
90,1635,SN1635,NB Martin L King after Alta,-115.160673,36.166889
90,1637,SN1637,NB Martin L King after Balzar,-115.160662,36.199853
90,1638,SN1638,SB Martin L King after Balzar,-115.160942,36.198924
90,1639,SN1639,NB Martin L King after Bonanza,-115.160662,36.178201
90,1640,SN1640,SB Martin L King after Bonanza,-115.161002,36.177497
90,1641,SN1641,NB Martin L King after Broad Arrow,-115.161359,36.222559
90,1642,SN1642,SB Martin L King before Quatro,-115.161585,36.22204
90,1643,SN1643,NB Martin L King after Brooks,-115.160996,36.214364
90,1644,SN1644,SB Martin L King after Brooks,-115.161205,36.212356
90,1645,SN1645,NB Martin L King after Carey,-115.160651,36.203956
90,1646,SN1646,SB Martin L King after Carey,-115.160983,36.201694
90,1649,SN1649,NB Martin L King after Cheyenne,-115.161095,36.218724
90,1650,SN1650,SB Martin L King after Cheyenne,-115.161392,36.217009
90,1651,SN1651,NB Camino Al Norte after Craig,-115.161833,36.240088
90,1652,SN1652,SB Martin L King after Craig,-115.162165,36.238599
90,1653,SN1653,NB Martin L King after Gowan,-115.161516,36.225403
90,1654,SN1654,SB Martin L King after Gowan,-115.161711,36.224191
90,1656,SN1656,NB Martin L King after Helen,-115.160761,36.206084
90,1657,SN1657,SB Martin L King after Helen,-115.161007,36.20545
90,1658,SN1658,NB Martin L King after Jimmy,-115.160678,36.193871
90,1659,SN1659,NB Martin L King after June,-115.160836,36.208976
90,1660,SN1660,SB Martin L King after June,-115.161075,36.208068
90,1661,SN1661,NB Martin L King after Lake Mead,-115.160636,36.196237
90,1662,SN1662,SB Martin L King after Lake Mead,-115.160994,36.194696
90,1664,SN1664,NB Martin L King after Madison,-115.160738,36.184114
90,1666,SN1666,SB Martin L King after U.S. 95,-115.160948,36.172577
90,1667,SN1667,NB Martin L King after Owens,-115.160697,36.188983
90,1669,SN1669,NB Martin L King after Symphony Prk,-115.160704,36.172054
90,1670,SN1670,SB Martin L King after Ramble Ridge,-115.161984,36.229248
90,1671,SN1671,NB Martin L King after Rev Wilson,-115.160919,36.211747
90,1672,SN1672,SB Martin L King before Metro Plaza,-115.160916,36.169148
90,1674,SN1674,NB Mrtn L King at 301 S Mrtn L King,-115.160733,36.169353
90,1675,SN1675,NB Martin L King after Washington,-115.160715,36.181537
90,1676,SN1676,SB Martin L King after Washington,-115.16104,36.179894
90,1677,SN1677,NB Martin L King after Watercreek,-115.161691,36.228664
90,1682,SN1682,NB Main after Bonanza,-115.142299,36.17774
90,1683,SN1683,SB Main after Bonanza,-115.143483,36.176277
90,1685,SN1685,SB Main after Bridger,-115.148194,36.169076
90,1695,SN1695,NB Main after Las Vegas,-115.154177,36.149431
90,1700,SN1700,NB Main after Stewart,-115.144439,36.174483
90,1701,SN1701,SB Main after Washington,-115.140848,36.180389
90,1702,SN1702,NB Main before Utah,-115.153888,36.152951
90,1715,SN1715,NB Maryland before Vegas Valley,-115.136756,36.1356
90,1718,SN1718,NB Maryland after Bonanza,-115.13041,36.17468
90,1719,SN1719,SB Maryland after Bonanza,-115.13078,36.173617
90,1720,SN1720,NB Maryland after Bonita,-115.136889,36.148993
90,1721,SN1721,NB Maryland before Katie,-115.137457,36.118524
90,1724,SN1724,SB Maryland after Bridger,-115.134444,36.163231
90,1725,SN1725,NB Maryland after Cashman,-115.127439,36.17809
90,1726,SN1726,NB Maryland before Charleston,-115.136811,36.158141
90,1727,SN1727,SB Maryland after Charleston,-115.137071,36.158173
90,1730,SN1730,SB Maryland after Cottage Grove,-115.137745,36.110863
90,1732,SN1732,SB Maryland after Desert Inn,-115.137094,36.128897
90,1733,SN1733,NB Maryland after Flamingo,-115.137684,36.115406
90,1734,SN1734,SB Maryland before Flamingo,-115.137937,36.115796
90,1735,SN1735,SB Maryland after Flamingo,-115.137948,36.113688
90,1736,SN1736,SB Maryland after Franklin,-115.137151,36.154156
90,1737,SN1737,NB Maryland before Franklin,-115.136873,36.15392
90,1739,SN1739,SB Maryland before Carson,-115.133206,36.165129
90,1740,SN1740,NB Maryland after Hacienda,-115.136726,36.09396
90,1741,SN1741,SB Maryland after Hacienda,-115.136984,36.093292
90,1742,SN1742,NB Maryland after Harmon,-115.137316,36.108627
90,1743,SN1743,SB Maryland after Harmon,-115.137485,36.107207
90,1746,SN1746,SB Maryland after Karen,-115.137022,36.139599
90,1747,SN1747,NB Maryland after Katie,-115.137336,36.12101
90,1748,SN1748,SB Maryland after Katie,-115.137688,36.11975
90,1749,SN1749,NB Maryland after Karen,-115.136745,36.141288
90,1752,SN1752,NB Maryland after Mesquite,-115.129719,36.171405
90,1753,SN1753,SB Maryland after Mesquite,-115.130031,36.170666
90,1755,SN1755,SB Maryland after Oakey,-115.137161,36.15068
90,1756,SN1756,NB Maryland before Rawhide,-115.136731,36.089637
90,1758,SN1758,NB Maryland after Reno,-115.136724,36.097941
90,1759,SN1759,SB Maryland after Reno,-115.137019,36.096879
90,1760,SN1760,NB Maryland after Rochelle,-115.137519,36.111515
90,1762,SN1762,WB Maryland after Sagman,-115.127627,36.178337
90,1763,SN1763,NB Maryland after Sahara,-115.1369,36.144903
90,1764,SN1764,SB Maryland after Sahara,-115.13706,36.143044
90,1766,SN1766,NB Maryland before Desert Inn,-115.136805,36.1291
90,1767,SN1767,SB Maryland after Sierra Vista,-115.137255,36.126491
90,1768,SN1768,NB Maryland before Sierra Vista,-115.137009,36.126055
90,1769,SN1769,SB Maryland after St Louis,-115.137168,36.147454
90,1770,SN1770,NB 13th after Stewart,-115.12969,36.168473
90,1771,SN1771,SB Maryland before Ogden,-115.131697,36.167427
90,1772,SN1772,SB Maryland before Desert Inn,-115.137021,36.132388
90,1773,SN1773,NB Maryland at Sunrise Hospital,-115.136759,36.132146
90,1774,SN1774,NB Maryland before Tropicana,-115.136732,36.100458
90,1775,SN1775,SB Maryland after Tropicana,-115.137072,36.099884
90,1776,SN1776,NB Maryland after Twain,-115.137218,36.122648
90,1777,SN1777,SB Maryland after Twain,-115.137614,36.12151
90,1778,SN1778,NB Maryland after University,-115.137035,36.104918
90,1779,SN1779,SB Maryland after University,-115.137225,36.103468
90,1780,SN1780,NB Maryland after Vegas Valley,-115.136756,36.137826
90,1781,SN1781,SB Maryland after Vegas Valley,-115.137022,36.136694
90,1783,SN1783,WB Maryland before Wilson,-115.13078,36.176537
90,1785,SN1785,McCarran Airprt Zero Lvl On Proprty,-115.147959,36.085359
90,1788,SN1788,NB McLeod after Desert Inn,-115.109619,36.13049
90,1789,SN1789,SB McLeod after Scarlet Oak,-115.109992,36.147153
90,1790,SN1790,NB McLeod before Sahara,-115.10979,36.143117
90,1791,SN1791,SB McLeod after Karen,-115.109983,36.140154
90,1792,SN1792,NB McLeod before Palora,-115.109658,36.133169
90,1793,SN1793,NB McLeod after Sahara,-115.10983,36.144739
90,1794,SN1794,SB McLeod after Sahara,-115.110001,36.143524
90,1795,SN1795,NB McLeod after Scarlet Oak,-115.109837,36.147638
90,1796,SN1796,SB McLeod after Schaffer,-115.10992,36.132876
90,1797,SN1797,NB McLeod before Hebard,-115.10977,36.138376
90,1798,SN1798,SB McLeod after Vegas Valley,-115.109931,36.136666
90,1799,SN1799,WB Meadows before Decatur,-115.201612,36.170275
90,1800,SN1800,WB Meadows at Meadows Mall,-115.196976,36.17024
90,1801,SN1801,EB Meadows after Decatur,-115.205067,36.169997
90,1819,SN1819,WB Tropicana after Andover,-115.054369,36.100609
90,1820,SN1820,SB Stephanie before Tropicana,-115.046389,36.101039
90,1821,SN1821,SB Mohawk after Lake Mead,-114.96194,36.062349
90,1835,SN1835,NB Nellis after Gowan,-115.06201,36.22661
90,1836,SN1836,SB Nellis at 401 N. Nellis,-115.062309,36.170627
90,1837,SN1837,NB Nellis before Las Vegas,-115.061998,36.233447
90,1838,SN1838,SB Nellis at 3909 N. Nellis,-115.062338,36.231767
90,1839,SN1839,NB Nellis after Alto,-115.06207,36.211697
90,1840,SN1840,SB Nellis after Alto,-115.0624,36.21025
90,1841,SN1841,NB Nellis across from St Louis,-115.065295,36.149115
90,1842,SN1842,SB Nellis after Baltimore,-115.06564,36.146748
90,1843,SN1843,NB Nellis after Bel Port,-115.062062,36.162913
90,1844,SN1844,SB Nellis after Sun Valley,-115.064288,36.104271
90,1847,SN1847,NB Nellis after Bonanza,-115.062037,36.174998
90,1848,SN1848,SB Nellis after Bonanza,-115.062303,36.17359
90,1849,SN1849,NB Nellis after Boulder,-115.064527,36.114277
90,1850,SN1850,SB Nellis after Boulder,-115.06474,36.11231
90,1851,SN1851,NB Nellis before LV RV resort,-115.06472,36.118468
90,1852,SN1852,SB Nellis at Siegel Suites,-115.065039,36.118128
90,1853,SN1853,NB Nellis after Carey,-115.06203,36.20418
90,1854,SN1854,SB Nellis after Carey,-115.062349,36.202839
90,1855,SN1855,NB Nellis after Cecile,-115.06205,36.21489
90,1856,SN1856,SB Nellis after Cecile,-115.062388,36.214329
90,1857,SN1857,NB Nellis after Charleston,-115.062163,36.15952
90,1858,SN1858,SB Nellis after Charleston,-115.062452,36.158356
90,1859,SN1859,NB Nellis after Cheyenne,-115.06203,36.2191
90,1860,SN1860,SB Nellis after Cheyenne,-115.062369,36.21758
90,1861,SN1861,SB Nellis after Chicago,-115.065607,36.150118
90,1862,SN1862,NB Nellis after Desert Inn,-115.065199,36.130407
90,1863,SN1863,SB Nellis after Desert Inn,-115.065509,36.12916
90,1864,SN1864,SB Nellis after Desert Winds MHP,-115.062338,36.22942
90,1865,SN1865,NB Nellis after I,-115.061998,36.229467
90,1866,SN1866,NB Nellis after Dunes Circle,-115.062018,36.221357
90,1868,SN1868,SB Nellis before Vegas Valley,-115.06568,36.139897
90,1869,SN1869,SB Nellis before Flamingo,-115.06496,36.11596
90,1871,SN1871,SB Nellis after Gowan,-115.062349,36.224827
90,1872,SN1872,NB Nellis before Happy Valley,-115.065281,36.13311
90,1873,SN1873,SB Nellis after Happy Valley,-115.06562,36.132897
90,1874,SN1874,NB Nellis after Harmon,-115.064227,36.108
90,1875,SN1875,NB Nellis after Harris,-115.06203,36.17852
90,1876,SN1876,SB Nellis after Harris,-115.06236,36.17712
90,1877,SN1877,NB Nellis after Judson,-115.06201,36.200339
90,1878,SN1878,SB Nellis after Judson,-115.062338,36.199588
90,1879,SN1879,NB Nellis after Kell,-115.062018,36.192978
90,1880,SN1880,SB Nellis after Kell,-115.06236,36.191859
90,1881,SN1881,NB Nellis after Las Vegas,-115.062011,36.237081
90,1882,SN1882,SB Nellis after Las Vegas,-115.062338,36.234839
90,1883,SN1883,NB Nellis after Lake Mead,-115.06201,36.196639
90,1884,SN1884,SB Nellis after Lake Mead,-115.062286,36.195567
90,1885,SN1885,NB Nellis after Monroe,-115.062037,36.185409
90,1886,SN1886,SB Nellis after Monroe,-115.062369,36.18453
90,1887,SN1887,NB Nellis before Tyndall,-115.06201,36.223677
90,1888,SN1888,SB Nellis before Cheyenne,-115.062309,36.222038
90,1890,SN1890,NB Nellis after Owens,-115.062055,36.189591
90,1891,SN1891,SB Nellis after Owens,-115.062328,36.188441
90,1892,SN1892,SB Nellis after Pancho Villa,-115.064597,36.109389
90,1894,SN1894,NB Nellis after Sahara,-115.065305,36.144967
90,1895,SN1895,SB Nellis after Sahara,-115.065621,36.143751
90,1896,SN1896,SB Nellis after Silverado Dr,-115.064147,36.094868
90,1897,SN1897,NB Nellis after Spyglass Hill,-115.065337,36.142
90,1898,SN1898,SB Nellis before Charleston,-115.062408,36.161909
90,1899,SN1899,NB Nellis after Stewart,-115.061925,36.167202
90,1900,SN1900,SB Nellis after Stewart,-115.062249,36.165815
90,1901,SN1901,NB Nellis after Sun Valley,-115.06412,36.105119
90,1902,SN1902,NB Nellis after Tropicana,-115.063848,36.101108
90,1903,SN1903,SB Nellis after Tropicana,-115.064076,36.099733
90,1904,SN1904,NB Nellis after Twain,-115.06494,36.122798
90,1905,SN1905,SB Nellis after Twain,-115.06523,36.12171
90,1906,SN1906,NB Nellis after Vegas Valley,-115.065376,36.13789
90,1907,SN1907,SB Nellis after Vegas Valley,-115.06572,36.13636
90,1908,SN1908,NB Nellis after Vista Flora,-115.06509,36.126629
90,1909,SN1909,SB Nellis after Vista Flora,-115.06539,36.12589
90,1911,SN1911,NB Nellis after Washington,-115.062052,36.182191
90,1912,SN1912,SB Nellis after Washington,-115.062319,36.180697
90,1913,SN1913,NB Nellis after Winterwood,-115.06357,36.154239
90,1915,SN1915,WB Nevada after Elm,-114.842619,35.97399
90,1916,SN1916,EB Boulder City after Gingerwood,-114.860318,35.968297
90,1917,SN1917,WB Boulder City after Gingerwood,-114.861109,35.968648
90,1918,SN1918,WB Nevada after Birch,-114.839727,35.975609
90,1975,SN1975,EB Harrison after D,-115.146738,36.187988
90,1976,SN1976,WB Owens after D,-115.148098,36.188549
90,1978,SN1978,WB Owens after H,-115.153109,36.188537
90,1979,SN1979,EB Owens before H,-115.15252,36.188289
90,1980,SN1980,EB Owens after J,-115.155839,36.188318
90,1981,SN1981,WB Owens after J,-115.156958,36.188579
90,1982,SN1982,EB Owens after N,-115.159647,36.188338
90,1983,SN1983,EB Owens after 21st,-115.119909,36.188358
90,1984,SN1984,EB Owens across from Ruben Diaz Ele,-115.075497,36.188358
90,1985,SN1985,EB Owens after Arthur,-115.110617,36.188269
90,1989,SN1989,EB Owens after Bruce,-115.124387,36.188338
90,1990,SN1990,WB Owens after Bruce,-115.12571,36.188549
90,1993,SN1993,WB Owens after Civic Center,-115.116567,36.188588
90,1994,SN1994,EB Owens after Davis,-115.137588,36.188338
90,1995,SN1995,WB Owens after Davis,-115.138198,36.188579
90,1997,SN1997,EB Owens after Eastern,-115.114902,36.188384
90,1998,SN1998,EB Owens before Vegasgreen,-115.082888,36.188318
90,1999,SN1999,WB Owens before Walnut,-115.088069,36.18849
90,2002,SN2002,EB Owens before Hoover,-115.127567,36.188329
90,2003,SN2003,WB Owens after Hoover,-115.128677,36.188537
90,2004,SN2004,EB Owens before Las Vegas,-115.134422,36.188347
90,2005,SN2005,WB Owens after Las Vegas,-115.13468,36.188529
90,2006,SN2006,EB Owens after Lamb,-115.078737,36.188378
90,2007,SN2007,WB Owens after Lamont,-115.06716,36.188748
90,2012,SN2012,WB Owens after Marion,-115.071477,36.188599
90,2013,SN2013,EB Owens before Nellis,-115.066488,36.188537
90,2014,SN2014,WB Owens before McDaniels,-115.120347,36.188568
90,2015,SN2015,EB Owens after Mojave,-115.106468,36.188189
90,2017,SN2017,WB Owens before Nellis,-115.061179,36.188958
90,2019,SN2019,WB Owens after Nellis,-115.06275,36.188919
90,2021,SN2021,WB Owens after James,-115.106408,36.188397
90,2022,SN2022,EB Owens after Palmer,-115.102229,36.1881
90,2023,SN2023,WB Owens after Patricia,-115.112039,36.18851
90,2024,SN2024,EB Owens after Pecos,-115.097759,36.18802
90,2025,SN2025,WB Owens after Pecos,-115.099029,36.188238
90,2026,SN2026,EB Owens after Sandhill,-115.088328,36.188218
90,2028,SN2028,WB Owens after Stevens,-115.092769,36.188397
90,2029,SN2029,EB Owens after Stevens,-115.091798,36.188147
90,2032,SN2032,EB Owens after Thata,-115.071657,36.188349
90,2033,SN2033,WB Owens before Lamb,-115.076865,36.188619
90,2043,SN2043,SB Palm after Charleston,-115.101221,36.158112
90,2044,SN2044,SB Palm after Olive,-115.101121,36.154004
90,2045,SN2045,NB Palm before Olive,-115.100908,36.154228
90,2056,SN2056,SB Paradise before Sahara,-115.154323,36.144961
90,2058,SN2058,SB Paradise after Corporate,-115.155069,36.117915
90,2059,SN2059,SB Paradise after Desert Inn,-115.154991,36.128798
90,2061,SN2061,SB Paradise after Flamingo,-115.153908,36.113658
90,2062,SN2062,SB Paradise after Gus Giuffre,-115.148821,36.09718
90,2063,SN2063,SB Paradise before Harmon,-115.152867,36.110145
90,2064,SN2064,SB Paradise after Harmon,-115.152036,36.107581
90,2065,SN2065,SB Paradise after Naples,-115.151239,36.105001
90,2066,SN2066,SB Paradise after Elvis Presley,-115.154977,36.134836
90,2067,SN2067,NB Paradise before St Louis,-115.153301,36.146218
90,2069,SN2069,SB Paradise after Sahara,-115.154935,36.142296
90,2070,SN2070,SB Paradise after Sands,-115.155134,36.120237
90,2071,SN2071,SB Paradise before Edison,-115.155064,36.12535
90,2072,SN2072,SB Paradise before Tropicana,-115.150364,36.102179
90,2073,SN2073,SB Paradise before Elvis Presley,-115.154926,36.139033
90,2078,SN2078,WB Patrick after Caballo,-115.050963,36.078378
90,2079,SN2079,WB Patrick after Stephanie,-115.045973,36.078461
90,2083,SN2083,SB Pecos after Alto,-115.098628,36.210404
90,2085,SN2085,NB Pecos before Stewart,-115.098058,36.16532
90,2086,SN2086,NB Pecos after Bartlett,-115.098278,36.200599
90,2087,SN2087,SB Pecos after Bartlett,-115.098543,36.199961
90,2089,SN2089,NB Pecos after Bonanza,-115.098109,36.174059
90,2090,SN2090,SB Pecos after Bonanza,-115.098416,36.173027
90,2091,SN2091,NB Pecos after Carey,-115.098298,36.203688
90,2092,SN2092,SB Pecos after Carey,-115.098564,36.202855
90,2093,SN2093,NB Pecos after San Antonio,-115.098338,36.206908
90,2094,SN2094,SB Pecos before Cartier,-115.0986,36.20648
90,2095,SN2095,SB Pecos after Casey,-115.101165,36.095295
90,2096,SN2096,NB Pecos after Charleston,-115.100908,36.15933
90,2097,SN2097,SB Pecos before Aristos,-115.098703,36.216871
90,2098,SN2098,SB Pecos after Colton,-115.098728,36.220779
90,2099,SN2099,NB Pecos at Cedar Drainage Trail,-115.098079,36.170072
90,2100,SN2100,SB Pecos after Cedar Drainage Trail,-115.098365,36.169544
90,2101,SN2101,NB Pecos before Flamingo,-115.100709,36.114447
90,2105,SN2105,NB Pecos after Geist,-115.098369,36.212658
90,2106,SN2106,SB Pecos after Gowan,-115.098793,36.224352
90,2107,SN2107,NB Pecos after Hacienda,-115.100859,36.094239
90,2108,SN2108,SB Pecos after Hacienda,-115.101153,36.092778
90,2109,SN2109,NB Pecos after Harmon,-115.100569,36.10833
90,2110,SN2110,SB Pecos after Harmon,-115.100853,36.10715
90,2111,SN2111,NB Pecos after Las Vegas,-115.098408,36.21532
90,2112,SN2112,NB Pecos after Lake Mead,-115.098249,36.196539
90,2113,SN2113,SB Pecos after Lake Mead,-115.098509,36.19514
90,2114,SN2114,SB Pecos after Las Vegas,-115.098702,36.213893
90,2115,SN2115,NB Pecos after Madama,-115.098169,36.185316
90,2116,SN2116,SB Pecos after Milenko,-115.100904,36.110366
90,2117,SN2117,NB Pecos after Mojave,-115.106327,36.123377
90,2118,SN2118,NB Pecos after Owens,-115.098178,36.18882
90,2119,SN2119,SB Pecos after Owens,-115.098483,36.187657
90,2120,SN2120,SB Pecos after Brookfield,-115.101127,36.090464
90,2121,SN2121,NB Pecos after Patrick,-115.1008,36.079779
90,2122,SN2122,SB Pecos after Patrick,-115.101077,36.078345
90,2123,SN2123,NB Pecos after Post,-115.100768,36.076967
90,2124,SN2124,SB Pecos after Pepper,-115.101043,36.07593
90,2125,SN2125,NB Pecos at Perliter,-115.098209,36.19239
90,2126,SN2126,SB Pecos after Perliter,-115.098485,36.192081
90,2127,SN2127,NB Pecos after Rawhide,-115.100839,36.090349
90,2128,SN2128,NB Pecos after Reno,-115.100888,36.097689
90,2130,SN2130,NB Pecos after Rochelle,-115.100683,36.111765
90,2131,SN2131,NB Pecos after Russell,-115.10082,36.087047
90,2132,SN2132,SB Pecos after Russell,-115.10111,36.085605
90,2133,SN2133,NB Pecos after Sunrise,-115.099049,36.162477
90,2134,SN2134,SB Pecos after Stewart,-115.098341,36.165675
90,2135,SN2135,SB Pecos after Sunrise,-115.100223,36.161746
90,2136,SN2136,NB Pecos after Sunset,-115.1007,36.07288
90,2137,SN2137,NB Pecos after Tompkins,-115.100689,36.104549
90,2138,SN2138,SB Pecos after Tompkins,-115.101048,36.103106
90,2139,SN2139,NB Pecos after Tropicana,-115.100879,36.100669
90,2140,SN2140,SB Pecos after Tropicana,-115.101184,36.099406
90,2141,SN2141,NB Pecos after Saddle,-115.100896,36.117582
90,2142,SN2142,NB Pecos after Washington,-115.098138,36.18135
90,2143,SN2143,SB Pecos after Washington,-115.098447,36.180396
90,2144,SN2144,SB Pecos McLeod Int after Desrt Inn,-115.109941,36.128999
90,2145,SN2145,SB Pecos after McLeod,-115.108418,36.124767
90,2146,SN2146,SB Pecos before Mojave,-115.105334,36.12223
90,2165,SN2165,SB Pueblo after Kirk,-114.959009,36.053348
90,2178,SN2178,SB Rainbow after Accent,-115.242358,36.239584
90,2179,SN2179,NB Rainbow after Alexander,-115.242191,36.233559
90,2180,SN2180,SB Rainbow after Alexander,-115.242427,36.231903
90,2181,SN2181,NB Rainbow after Alta,-115.244102,36.166941
90,2182,SN2182,SB Rainbow after Alta,-115.244469,36.165939
90,2183,SN2183,SB Rainbow after Ann,-115.242527,36.262566
90,2185,SN2185,NB Rainbow after Buckskin,-115.242199,36.222372
90,2186,SN2186,NB Rainbow after Charleston,-115.243566,36.159959
90,2187,SN2187,SB Rainbow after Charleston,-115.243867,36.158408
90,2188,SN2188,NB Rainbow after Cheyenne,-115.242195,36.218605
90,2189,SN2189,SB Rainbow after Cheyenne,-115.24243,36.217347
90,2190,SN2190,SB Rainbow after Palmyra,-115.243137,36.132773
90,2192,SN2192,NB Rainbow after Del Rey,-115.243344,36.155811
90,2193,SN2193,SB Rainbow after Del Rey,-115.243678,36.154912
90,2194,SN2194,NB Rainbow after Desert Inn,-115.242821,36.130188
90,2195,SN2195,SB Rainbow after Desert Inn,-115.243163,36.12884
90,2196,SN2196,NB Rainbow after Edna,-115.242768,36.137494
90,2197,SN2197,NB Rainbow after Eldora,-115.242759,36.141155
90,2198,SN2198,NB Rainbow after Endora,-115.242802,36.118696
90,2199,SN2199,SB Rainbow after Endora,-115.243137,36.117713
90,2200,SN2200,NB Rainbow after Flamingo,-115.242793,36.115383
90,2201,SN2201,SB Rainbow after Flamingo,-115.243129,36.113531
90,2202,SN2202,NB Rainbow after Gazelle,-115.242204,36.193013
90,2204,SN2204,NB Rainbow after Gowan,-115.242213,36.225985
90,2207,SN2207,SB Rainbow after Hacienda,-115.243102,36.091797
90,2208,SN2208,SB Rainbow before Charleston,-115.244019,36.161132
90,2209,SN2209,NB Rainbow before Alta,-115.24391,36.163465
90,2210,SN2210,NB Rainbow after Lake Mead,-115.241887,36.196526
90,2211,SN2211,SB Rainbow after Lake Mead,-115.242406,36.194403
90,2213,SN2213,NB Rainbow after Light Breeze,-115.242193,36.216703
90,2214,SN2214,SB Rainbow after Light Breeze,-115.242406,36.215033
90,2217,SN2217,SB Rainbow after OBannon,-115.243281,36.147311
90,2218,SN2218,NB Rainbow before Oakey,-115.242975,36.148755
90,2219,SN2219,NB Rainbow after Oakey,-115.243163,36.152405
90,2220,SN2220,SB Rainbow after Oakey,-115.243466,36.150976
90,2222,SN2222,NB Rainbow after Palmyra,-115.242791,36.133813
90,2223,SN2223,NB Rainbow after Peak,-115.242185,36.211327
90,2224,SN2224,SB Rainbow after Peak,-115.242391,36.210149
90,2225,SN2225,SB Rainbow after Red Coach,-115.242348,36.243418
90,2226,SN2226,NB Rainbow after Riverdale,-115.242215,36.230275
90,2227,SN2227,SB Rainbow after Riverdale,-115.242415,36.229585
90,2228,SN2228,NB Rainbow after Sahara,-115.242798,36.145465
90,2229,SN2229,SB Rainbow after Sahara,-115.24309,36.14347
90,2230,SN2230,NB Rainbow after Silverstream,-115.242172,36.179313
90,2231,SN2231,NB Rainbow after Smoke Ranch,-115.242182,36.20407
90,2232,SN2232,SB Rainbow after Smoke Ranch,-115.2424,36.202831
90,2233,SN2233,SB Rainbow after Snake River,-115.242459,36.257915
90,2234,SN2234,NB Rainbow after Spring Mountain,-115.24282,36.126945
90,2235,SN2235,SB Rainbow after Spring Mountain,-115.243152,36.124646
90,2236,SN2236,NB Rainbow at 4252 S. Rainbow,-115.242809,36.111712
90,2237,SN2237,SB Rainbow after Spring Valley S.,-115.243228,36.102657
90,2239,SN2239,SB Rainbow after Spring Valley N.,-115.243163,36.10998
90,2241,SN2241,SB Rainbow after Eldora,-115.243101,36.140145
90,2242,SN2242,SB Rainbow after Welcome,-115.242395,36.253851
90,2245,SN2245,SB Rainbow after Tropicana,-115.243239,36.098852
90,2247,SN2247,NB Rainbow after Twain,-115.242812,36.122504
90,2249,SN2249,SB Rainbow after Twain,-115.243149,36.121377
90,2250,SN2250,NB Rainbow after Vegas,-115.242172,36.190143
90,2251,SN2251,SB Rainbow after Vegas,-115.242414,36.187962
90,2252,SN2252,NB Rainbow after Washington,-115.242153,36.181579
90,2253,SN2253,SB Rainbow after Washington,-115.242479,36.180135
90,2254,SN2254,SB Rainbow after Westcliff,-115.244581,36.173039
90,2255,SN2255,NB Rainbow before Westcliff,-115.244193,36.172729
90,2256,SN2256,SB Rainbow after White Sands,-115.244534,36.169996
90,2257,SN2257,NB Rainbow after Wild Bob,-115.242146,36.23688
90,2258,SN2258,SB Rainbow after Wild Bob,-115.242393,36.23578
90,2259,SN2259,SB Rainbow after Willow Lake,-115.242405,36.221195
90,2260,SN2260,SB Rainbow after Willow Wood,-115.242414,36.224785
90,2261,SN2261,NB Rainbow after Yorktown,-115.242183,36.207435
90,2262,SN2262,SB Rainbow after Yorktown,-115.242386,36.20647
90,2263,SN2263,SB Rampart after Cheyenne,-115.27895,36.21826
90,2264,SN2264,SB Rampart after Del Webb,-115.2791,36.20975
90,2265,SN2265,NB Rampart after Lake Mead,-115.281369,36.200609
90,2268,SN2268,NB Rampart after Scholar,-115.284659,36.197078
90,2270,SN2270,NB Rancho after Airport,-115.203029,36.207394
90,2272,SN2272,NB Jimmy Durante after Tropicana,-115.039509,36.101159
90,2273,SN2273,SB Rancho after Alta,-115.172828,36.165616
90,2275,SN2275,SB Rancho after Bonanza,-115.175764,36.177
90,2278,SN2278,NB Rancho after Carey,-115.199337,36.203424
90,2279,SN2279,NB Rancho after Charleston,-115.172637,36.159608
90,2281,SN2281,NB Rancho after Cheyenne,-115.212344,36.217601
90,2282,SN2282,SB Rancho after Cheyenne,-115.211824,36.216615
90,2283,SN2283,NB Rancho after Coran,-115.193375,36.196862
90,2284,SN2284,SB Rancho after Coran,-115.192419,36.195309
90,2285,SN2285,NB Rancho after Craig,-115.233475,36.240762
90,2286,SN2286,SB Rancho after Craig,-115.232181,36.238941
90,2288,SN2288,NB Rancho at 2830 N. Rancho,-115.208882,36.213842
90,2290,SN2290,NB Rancho after Decatur,-115.205906,36.210576
90,2291,SN2291,SB Rancho after Decatur,-115.20442,36.208455
90,2292,SN2292,NB Rancho after Duncan,-115.221666,36.22782
90,2293,SN2293,SB Rancho after Duncan,-115.221301,36.227007
90,2296,SN2296,NB Rancho after Ernest May,-115.178094,36.180012
90,2297,SN2297,SB Rancho after Ernest May,-115.177528,36.17893
90,2298,SN2298,NB Rancho after Gowan,-115.219295,36.225301
90,2299,SN2299,SB Rancho after Gowan,-115.218638,36.224044
90,2300,SN2300,NB Rancho before Holly,-115.188661,36.191622
90,2301,SN2301,NB Rancho before Jay,-115.216184,36.2218
90,2302,SN2302,NB Rancho after Jones,-115.226801,36.233472
90,2303,SN2303,NB Rancho after Lake Mead,-115.19685,36.200648
90,2304,SN2304,SB Rancho after Lake Mead,-115.19621,36.199411
90,2306,SN2306,SB Rancho after Lone Mountain,-115.239814,36.247256
90,2308,SN2308,SB Rancho before Melody,-115.190139,36.1928
90,2309,SN2309,NB Rancho after Mesquite,-115.173087,36.173807
90,2310,SN2310,SB Rancho after Mesquite,-115.173199,36.173026
90,2311,SN2311,SB Rancho after Michael,-115.215977,36.221167
90,2312,SN2312,SB Rancho after Airport,-115.202353,36.206175
90,2316,SN2316,SB Rancho after Red Coach,-115.235562,36.24264
90,2317,SN2317,NB Rancho after Palomino,-115.172536,36.163247
90,2318,SN2318,SB Rancho after Palomino,-115.172876,36.162024
90,2319,SN2319,NB Rancho after Park Way,-115.17243,36.168527
90,2320,SN2320,NB Rancho after Pinto,-115.17247,36.16485
90,2321,SN2321,SB Rancho at 4233 N. Rancho,-115.230254,36.23682
90,2322,SN2322,SB Rancho after Rancho Bel Air,-115.172736,36.170751
90,2324,SN2324,NB Rancho after Redondo,-115.172537,36.17173
90,2325,SN2325,SB Rancho after Riverside,-115.182897,36.18496
90,2327,SN2327,SB Rancho after Rainbow,-115.242525,36.250296
90,2328,SN2328,SB Rancho after Smoke Ranch,-115.198596,36.20207
90,2330,SN2330,NB Rancho after Vegas,-115.186107,36.188831
90,2331,SN2331,SB Rancho after Vegas,-115.185889,36.188198
90,2333,SN2333,NB Rancho after Washington,-115.17952,36.181615
90,2334,SN2334,SB Rancho after Washington,-115.178995,36.180659
90,2340,SN2340,EB Reno after Haven,-115.167837,36.097179
90,2341,SN2341,WB Reno after Haven,-115.168861,36.097357
90,2345,SN2345,NB Revere after Carey,-115.15172,36.203779
90,2347,SN2347,NB Revere after Nelson,-115.151762,36.20553
90,2372,SN2372,EB Rossmoyne after Baron,-115.146629,36.207499
90,2374,SN2374,EB Rossmoyne after Revere,-115.15121,36.20865
90,2380,SN2380,EB Sahara after 15th,-115.132551,36.144158
90,2381,SN2381,EB Sahara after 6th,-115.146218,36.14376
90,2383,SN2383,EB Sahara after Arden,-115.073969,36.144228
90,2386,SN2386,WB Sahara after Arville,-115.200543,36.144639
90,2387,SN2387,EB Sahara after Atlantic,-115.113969,36.144184
90,2389,SN2389,WB Sahara after Atlantic,-115.114889,36.144501
90,2393,SN2393,EB Sahara after Buffalo,-115.260019,36.143538
90,2394,SN2394,WB Sahara after Buffalo,-115.261635,36.143838
90,2395,SN2395,EB Sahara after Burnham,-115.122438,36.144174
90,2399,SN2399,EB Sahara after Cimarron,-115.26936,36.143718
90,2400,SN2400,WB Sahara before Commercial Center,-115.141603,36.144236
90,2401,SN2401,WB Sahara before Decatur,-115.204711,36.144668
90,2402,SN2402,EB Sahara after Decatur,-115.20744,36.144374
90,2404,SN2404,WB Sahara after Decatur,-115.208779,36.144679
90,2407,SN2407,EB Sahara after Durango,-115.278056,36.143927
90,2408,SN2408,EB Sahara before Cimarron,-115.274059,36.14383
90,2409,SN2409,EB Sahara after Eastern,-115.118003,36.144163
90,2410,SN2410,WB Sahara after Eastern,-115.120042,36.144458
90,2411,SN2411,EB Sahara after Edmond,-115.211911,36.144312
90,2413,SN2413,EB Sahara after El Camino,-115.229047,36.144
90,2414,SN2414,WB Sahara after Tomsik,-115.274251,36.144142
90,2415,SN2415,NB Jimmy Durante after Lenaking,-115.039928,36.104029
90,2417,SN2417,WB Sahara after Fremont,-115.102156,36.145385
90,2418,SN2418,EB Sahara after Fort Apache,-115.297009,36.144236
90,2419,SN2419,EB Sahara before Boulder,-115.101753,36.145306
90,2421,SN2421,EB Sahara before Fort Apache,-115.302033,36.144259
90,2423,SN2423,EB Sahara after Jones,-115.224271,36.144096
90,2424,SN2424,WB Sahara after Jones,-115.2263,36.144367
90,2425,SN2425,EB Sahara after Las Vegas,-115.156433,36.143545
90,2426,SN2426,WB Sahara after Las Vegas,-115.158243,36.143795
90,2427,SN2427,EB Sahara before Lake Sahara,-115.28308,36.143948
90,2429,SN2429,EB Sahara after Lamb,-115.082306,36.144201
90,2430,SN2430,WB Sahara after Lamb,-115.083484,36.144417
90,2431,SN2431,WB Sahara after Frank,-115.068634,36.144431
90,2432,SN2432,EB Sahara after Las Verdes,-115.193706,36.144288
90,2433,SN2433,EB Sahara after Lindell,-115.216178,36.144238
90,2439,SN2439,EB Sahara after Maryland,-115.13649,36.1441
90,2441,SN2441,WB Sahara after Maryland,-115.138199,36.144354
90,2442,SN2442,EB Sahara after McLeod,-115.109251,36.144129
90,2443,SN2443,WB Sahara after McLeod,-115.110322,36.144455
90,2444,SN2444,EB Sahara after Mojave,-115.105005,36.144225
90,2445,SN2445,WB Sahara after Mojave,-115.105886,36.144514
90,2447,SN2447,EB Sahara after Nellis,-115.06482,36.144199
90,2449,SN2449,WB Sahara after Orchard Valley,-115.03872,36.144734
90,2450,SN2450,WB Sahara after Caravelle,-115.061263,36.145181
90,2453,SN2453,EB Sahara before Rancho,-115.174764,36.144108
90,2454,SN2454,EB Sahara after Paradise,-115.154145,36.143481
90,2456,SN2456,EB Sahara after Rainbow,-115.241914,36.143995
90,2457,SN2457,WB Sahara after Rainbow,-115.243591,36.144297
90,2458,SN2458,WB Sahara after Rancho,-115.174593,36.144479
90,2460,SN2460,EB Sahara after Redwood,-115.237767,36.143941
90,2461,SN2461,WB Sahara after Redwood,-115.238869,36.144263
90,2465,SN2465,EB Sahara before Nellis,-115.069417,36.144219
90,2468,SN2468,WB Sahara after Sandhill,-115.092719,36.146398
90,2469,SN2469,EB Sahara before Sandhill,-115.09357,36.146185
90,2471,SN2471,WB Sahara before Santa Rosa,-115.149904,36.143932
90,2473,SN2473,WB Sahara after Sloan,-115.047918,36.144711
90,2478,SN2478,WB Sahara before Tam,-115.16286,36.143968
90,2480,SN2480,EB Sahara after Tenaya,-115.251358,36.143774
90,2481,SN2481,WB Sahara after Tenaya,-115.252616,36.144051
90,2482,SN2482,WB Sahara before Torrey Pines,-115.233207,36.14422
90,2483,SN2483,EB Sahara after Torrey Pines,-115.233394,36.143904
90,2485,SN2485,WB Sahara after Tree Line,-115.034525,36.144686
90,2487,SN2487,EB Sahara after Valley View,-115.189838,36.144263
90,2489,SN2489,WB Sahara after Walnut,-115.087909,36.144478
90,2491,SN2491,EB Sahara after Winterwood,-115.05649,36.146129
90,2492,SN2492,WB Sahara after Winterwood,-115.05774,36.14617
90,2504,SN2504,EB Sands after Koval,-115.163026,36.122252
90,2505,SN2505,WB Sands after Koval,-115.164882,36.122582
90,2506,SN2506,EB Sands after Las Vegas,-115.168441,36.125149
90,2509,SN2509,WB Sands after Paradise,-115.156038,36.12147
90,2520,SN2520,SB Simmons after Alexander,-115.180296,36.231647
90,2521,SN2521,SB Simmons before Colton,-115.179804,36.221743
90,2524,SN2524,SB Simmons after Craig,-115.180307,36.238629
90,2526,SN2526,SB Simmons after Gowan,-115.179924,36.224287
90,2530,SN2530,EB Smoke Ranch after steinke,-115.239131,36.20321
90,2531,SN2531,WB Smoke Ranch after James Bilbray,-115.23802,36.203414
90,2538,SN2538,EB Smoke Ranch after Rainbow,-115.2413,36.20325
90,2539,SN2539,WB Smoke Ranch after Rainbow,-115.242731,36.203484
90,2543,SN2543,WB Smoke Ranch after Rock Springs,-115.247397,36.203519
90,2546,SN2546,WB Smoke Ranch after Torrey Pines,-115.233623,36.203345
90,2553,SN2553,WB Spring Mountain before Polaris,-115.184967,36.126459
90,2554,SN2554,EB Spring Mountain after Arville,-115.19868,36.12626
90,2555,SN2555,WB Spring Mountain after Arville,-115.199948,36.126417
90,2558,SN2558,EB Spring Mountain after Decatur,-115.206621,36.126198
90,2559,SN2559,WB Spring Mountain after Decatur,-115.20883,36.12634
90,2560,SN2560,EB Spring Mountain after Duneville,-115.220394,36.125592
90,2561,SN2561,EB Spring Mountain before El Camino,-115.230235,36.125455
90,2562,SN2562,WB Spring Mountain after El Camino,-115.230797,36.125622
90,2563,SN2563,EB Spring Mountain after Mel Torme,-115.172526,36.125446
90,2565,SN2565,EB Spring Mountain before Decatur,-115.210865,36.126059
90,2566,SN2566,WB Spring Mountain after Hauck,-115.211597,36.12619
90,2570,SN2570,EB Spring Mountain after Jones,-115.223876,36.125423
90,2571,SN2571,WB Spring Mountain after Jones,-115.225605,36.12557
90,2572,SN2572,WB Spring Mountain after Las Vegas,-115.170513,36.125696
90,2573,SN2573,EB Spring Mountain after Lindell,-115.21583,36.125786
90,2574,SN2574,WB Spring Mountain after Lindell,-115.217273,36.12591
90,2576,SN2576,EB Spring Mountain before Stober,-115.203581,36.126222
90,2577,SN2577,EB Spring Mountain after Polaris,-115.185134,36.126244
90,2579,SN2579,EB Spring Mountain after Rainbow,-115.242227,36.125631
90,2580,SN2580,WB Spring Mountain after Rainbow,-115.244505,36.125795
90,2581,SN2581,WB Spring Mountain before Red Rock,-115.221842,36.125687
90,2582,SN2582,EB Spring Mountain after Redwood,-115.238029,36.125573
90,2583,SN2583,WB Spring Mountain after Redwood,-115.238917,36.12575
90,2585,SN2585,WB Spring Mountain before Myrtle,-115.203398,36.126396
90,2586,SN2586,EB Spring Mtn after Torrey Pines,-115.233376,36.125518
90,2587,SN2587,WB Spring Mtn after Torrey Pines,-115.234786,36.125689
90,2588,SN2588,EB Spring Mtn after Valley View,-115.189569,36.12639
90,2590,SN2590,WB Spring Mtn after Valley View,-115.191098,36.126617
90,2591,SN2591,EB Spring Mountain after Wynn,-115.194209,36.126351
90,2592,SN2592,WB Spring Mountain after Wynn,-115.194978,36.126533
90,2594,SN2594,EB St Louis after Fremont,-115.103868,36.149138
90,2595,SN2595,WB St Louis after Fremont,-115.105581,36.148161
90,2596,SN2596,EB St Louis after Las Vegas,-115.153699,36.148047
90,2597,SN2597,WB St Louis after Palm,-115.102239,36.150579
90,2598,SN2598,EB St Louis after Palm,-115.101398,36.151
90,2601,SN2601,NB Stephanie after Mall Ring,-115.045968,36.069466
90,2602,SN2602,NB Stephanie after Power Center,-115.046073,36.060314
90,2603,SN2603,SB Stephanie after Power Center,-115.046356,36.059488
90,2604,SN2604,SB Stephanie before Sunset,-115.046295,36.064903
90,2605,SN2605,NB Stephanie after Sunset,-115.046007,36.065857
90,2606,SN2606,SB Stephanie after Sunset,-115.04633,36.063059
90,2607,SN2607,NB Stephanie after Valley Wind,-115.046274,36.051486
90,2608,SN2608,NB Stephanie after Warm Springs,-115.046063,36.056941
90,2609,SN2609,SB Stephanie after Warm Springs,-115.04644,36.055158
90,2611,SN2611,WB Stewart after 10th,-115.133687,36.169304
90,2612,SN2612,EB Stewart after 13th,-115.129664,36.167422
90,2613,SN2613,WB Stewart after 14th,-115.1292,36.167385
90,2614,SN2614,EB Stewart after 21st,-115.120046,36.16648
90,2615,SN2615,WB Stewart after 21st,-115.120956,36.166585
90,2616,SN2616,EB Stewart after 28th,-115.110981,36.166337
90,2617,SN2617,WB Stewart after 28th,-115.112251,36.16659
90,2620,SN2620,EB Stewart after 7th,-115.136792,36.170477
90,2621,SN2621,WB Stewart after 6th,-115.138504,36.171383
90,2623,SN2623,EB Stewart before 10th,-115.133771,36.169179
90,2624,SN2624,WB Stewart before Pecos,-115.095665,36.166264
90,2625,SN2625,EB Stewart after Bruce,-115.124133,36.166442
90,2626,SN2626,WB Stewart after Bruce,-115.126391,36.166532
90,2627,SN2627,WB Stewart before Century,-115.085933,36.166358
90,2628,SN2628,WB Stewart after Christy,-115.053638,36.16699
90,2629,SN2629,WB Stewart after Coast,-115.093091,36.166284
90,2630,SN2630,EB Stewart after Eastern,-115.114564,36.166402
90,2631,SN2631,WB Stewart after Eastern,-115.11622,36.166647
90,2633,SN2633,EB Stewart after Greenbrook,-115.066458,36.166361
90,2634,SN2634,WB Stewart after Greenbrook,-115.067005,36.166582
90,2636,SN2636,EB Stewart after Lamb,-115.08002,36.166195
90,2637,SN2637,WB Stewart after Lamb,-115.081292,36.166404
90,2639,SN2639,EB Stewart after Marion,-115.070593,36.16631
90,2640,SN2640,WB Stewart after Marion,-115.071866,36.16652
90,2641,SN2641,WB Stewart after Maryland,-115.131491,36.168367
90,2642,SN2642,EB Stewart after Mojave,-115.104588,36.166178
90,2643,SN2643,WB Stewart after Mojave,-115.106136,36.166443
90,2644,SN2644,EB Stewart after Nellis,-115.061552,36.166441
90,2645,SN2645,WB Stewart after Nellis,-115.062836,36.166629
90,2646,SN2646,EB Stewart after Page,-115.075505,36.166248
90,2647,SN2647,WB Stewart after Page,-115.076552,36.166461
90,2648,SN2648,EB Stewart after Pecos,-115.097669,36.166024
90,2649,SN2649,WB Stewart after Pecos,-115.098787,36.166257
90,2651,SN2651,EB Stewart after Ronald,-115.086185,36.166133
90,2652,SN2652,EB Stewart before Sandhill,-115.092526,36.166078
90,2653,SN2653,EB Stewart after Sandhill,-115.088813,36.166108
90,2654,SN2654,WB Stewart after Sandhill,-115.089649,36.166322
90,2658,SN2658,EB Sunset after Annie Oakley,-115.086262,36.070914
90,2659,SN2659,WB Sunset after Annie Oakley,-115.087975,36.071196
90,2660,SN2660,WB Sunset after Arroyo Grande,-115.059978,36.06389
90,2661,SN2661,EB Sunset after Arroyo Grande,-115.058098,36.063588
90,2663,SN2663,EB Sunset after Athenian,-115.077447,36.070778
90,2664,SN2664,WB Sunset after Athenian,-115.078489,36.071037
90,2665,SN2665,EB Sunset after Bermuda,-115.153886,36.071246
90,2670,SN2670,EB Sunset after Eastern,-115.117697,36.071459
90,2671,SN2671,WB Sunset after Eastern,-115.11945,36.07177
90,2673,SN2673,EB Sunset after Eiger,-115.06045,36.063659
90,2675,SN2675,EB Sunset after Escondido,-115.134218,36.07163
90,2676,SN2676,WB Sunset after Escondido,-115.135299,36.07192
90,2677,SN2677,WB Sunset after Marks,-115.040937,36.063875
90,2679,SN2679,WB Sunset after Gibson,-115.027757,36.06395
90,2680,SN2680,EB Sunset after Green Valley,-115.081219,36.07077
90,2681,SN2681,WB Sunset after Green Valley,-115.083296,36.071016
90,2682,SN2682,EB Sunset after Grier,-115.147669,36.071398
90,2684,SN2684,EB Sunset after Marks,-115.035497,36.063622
90,2685,SN2685,WB Sunset before Marks,-115.035504,36.063919
90,2686,SN2686,EB Sunset after McLeod,-115.1119,36.07144
90,2687,SN2687,WB Sunset after McLeod,-115.113472,36.071678
90,2690,SN2690,EB Sunset after Paradise,-115.140263,36.071559
90,2694,SN2694,EB Sunset after Pecos,-115.099704,36.071435
90,2695,SN2695,WB Sunset after Pecos,-115.101771,36.071703
90,2696,SN2696,EB Sunset before Pepper Tree,-115.066218,36.065957
90,2699,SN2699,EB Sunset after Sandhill,-115.091115,36.071094
90,2700,SN2700,WB Sunset after Sandhill,-115.093248,36.071427
90,2702,SN2702,EB Sunset after Spencer,-115.12719,36.071578
90,2703,SN2703,WB Sunset after Spencer,-115.128229,36.071825
90,2704,SN2704,WB Sunset after Stephanie,-115.046736,36.06384
90,2705,SN2705,EB Sunset before Stephanie,-115.047958,36.063528
90,2706,SN2706,EB Sunset after Stephanie,-115.04166,36.063546
90,2707,SN2707,EB Sunset after Surrey,-115.122262,36.071521
90,2708,SN2708,EB Sunset after Tomiyasu,-115.104469,36.071468
90,2709,SN2709,WB Sunset after Sunset Corporate,-115.10663,36.071717
90,2710,SN2710,EB Sunset after Valle Verde,-115.06786,36.067499
90,2711,SN2711,EB Sunset after Whitney Ranch,-115.052009,36.063599
90,2712,SN2712,WB Sunset after Whitney Ranch,-115.053236,36.063809
90,2716,SN2716,NB University Ctr after De Met,-115.145796,36.096107
90,2717,SN2717,NB University Ctr after Flamingo,-115.146229,36.115853
90,2718,SN2718,NB University Ctr after Harmon,-115.150342,36.108671
90,2720,SN2720,NB University Ctr after Naples,-115.149827,36.106075
90,2721,SN2721,NB University Ctr before Twain,-115.146132,36.119006
